address_street,city,state,zip_code,price,beds,baths,area_sq_ft,latitude,longitude,status_text,listing_id,listing_time,list_url,date_scraped
1010 Martin St SE,Atlanta,GA,30315,"$199,000",1,1,658,33.72688,-84.38301,House for sale,35882784,4 hours ago,https://www.zillow.com/homedetails/1010-Martin-St-SE-Atlanta-GA-30315/35882784_zpid/,06-10-2022_18:57:36
2318 Capella Cir SW,Atlanta,GA,30331,"$290,000",3,3,"1,623",33.68886,-84.62023,Townhouse for sale,171602088,4 hours ago,https://www.zillow.com/homedetails/2318-Capella-Cir-SW-Atlanta-GA-30331/171602088_zpid/,06-10-2022_18:57:36
1388 La France St #UNIT 15,Atlanta,GA,30307,"$675,000",3,4,--,33.7676,-84.3395,Townhouse for sale,2091052996,Open: Sun. 3-5pm,https://www.zillow.com/homedetails/1388-La-France-St-UNIT-15-Atlanta-GA-30307/2091052996_zpid/,06-10-2022_18:57:36
850 Piedmont Ave NE UNIT 3318,Atlanta,GA,30308,"$739,900",2,3,"2,442",33.777756,-84.38165,Townhouse for sale,2062910906,4 hours ago,https://www.zillow.com/homedetails/850-Piedmont-Ave-NE-UNIT-3318-Atlanta-GA-30308/2062910906_zpid/,06-10-2022_18:57:36
1011 Moreland Dr SE,Atlanta,GA,30315,"$300,000",3,2,996,33.708664,-84.355835,House for sale,35889391,Open: Sat. 11am-2pm,https://www.zillow.com/homedetails/1011-Moreland-Dr-SE-Atlanta-GA-30315/35889391_zpid/,06-10-2022_18:57:36
1841 Almeta Ave NE,Atlanta,GA,30307,"$1,975,000",,,,33.766197,-84.327095,Lot / Land for sale,2068523388,4 hours ago,https://www.zillow.com/homedetails/1841-Almeta-Ave-NE-Atlanta-GA-30307/2068523388_zpid/,06-10-2022_18:57:36
2218 Belvedere Ave SW,Atlanta,GA,30311,"$524,900",4,3,"2,806",33.720695,-84.46085,House for sale,35858653,4 hours ago,https://www.zillow.com/homedetails/2218-Belvedere-Ave-SW-Atlanta-GA-30311/35858653_zpid/,06-10-2022_18:57:36
1401 Liberty Pkwy NW,Atlanta,GA,30318,"$390,000",3,4,"1,220",33.818012,-84.44039,Townhouse for sale,82627189,4 hours ago,https://www.zillow.com/homedetails/1401-Liberty-Pkwy-NW-Atlanta-GA-30318/82627189_zpid/,06-10-2022_18:57:36
690 Penn Ave NE,Atlanta,GA,30308,"$1,800,000",-,-,--,33.773487,-84.3793,Multi-family home for sale,88824270,4 hours ago,https://www.zillow.com/homedetails/690-Penn-Ave-NE-Atlanta-GA-30308/88824270_zpid/,06-10-2022_18:57:36
651 McGruder St NE,Atlanta,GA,30312,"$1,169,000",3,4,"2,375",33.75835,-84.36594,House for sale,69344809,11 hours ago,https://www.zillow.com/homedetails/651-McGruder-St-NE-Atlanta-GA-30312/69344809_zpid/,06-10-2022_18:57:36
171 Auburn Ave NE UNIT 428,Atlanta,GA,30303,"$275,000",2,2,"1,091",33.75542,-84.381584,Condo for sale,2087538920,12 hours ago,https://www.zillow.com/homedetails/171-Auburn-Ave-NE-UNIT-428-Atlanta-GA-30303/2087538920_zpid/,06-10-2022_18:57:36
1649 Beecher St SW,Atlanta,GA,30310,"$375,000",4,2,"1,873",33.733936,-84.441734,House for sale,35847486,Play video iconVideo Walkthrough,https://www.zillow.com/homedetails/1649-Beecher-St-SW-Atlanta-GA-30310/35847486_zpid/,06-10-2022_18:57:36
783 Yorkshire Rd NE,Atlanta,GA,30306,"$1,295,000",4,4,"3,639",33.794983,-84.36144,House for sale,35930179,14 hours ago,https://www.zillow.com/homedetails/783-Yorkshire-Rd-NE-Atlanta-GA-30306/35930179_zpid/,06-10-2022_18:57:36
306 Peachtree Ave NE,Atlanta,GA,30305,"$1,499,000",5,5,"3,488",33.83504,-84.37767,House for sale,35932710,14 hours ago,https://www.zillow.com/homedetails/306-Peachtree-Ave-NE-Atlanta-GA-30305/35932710_zpid/,06-10-2022_18:57:36
20 Marietta St NW APT 13F,Atlanta,GA,30303,"$135,000",,1,543,33.75458,-84.390625,Condo for sale,35888535,15 hours ago,https://www.zillow.com/homedetails/20-Marietta-St-NW-APT-13F-Atlanta-GA-30303/35888535_zpid/,06-10-2022_18:57:36
175 15th St NE SUITE 403,Atlanta,GA,30309,"$579,900",2,2,"1,170",33.788334,-84.38187,Condo for sale,35898162,15 hours ago,https://www.zillow.com/homedetails/175-15th-St-NE-SUITE-403-Atlanta-GA-30309/35898162_zpid/,06-10-2022_18:57:36
1662 Jackson Sq NW,Atlanta,GA,30318,"$250,000",2,3,"1,416",33.797104,-84.47621,Townhouse for sale,65470920,15 hours ago,https://www.zillow.com/homedetails/1662-Jackson-Sq-NW-Atlanta-GA-30318/65470920_zpid/,06-10-2022_18:57:36
1609 S Ponce De Leon Ave NE #A,Atlanta,GA,30307,"$1,995,000",4,5,"4,574",,,New construction,2084613909,20 hours ago,https://www.zillow.com/homedetails/1609-S-Ponce-De-Leon-Ave-NE-A-Atlanta-GA-30307/2084613909_zpid/,06-10-2022_18:57:36
3338 Peachtree Rd NE APT 2105,Atlanta,GA,30326,"$635,000",3,3,"1,876",33.852448,-84.36318,Condo for sale,2063210424,1 day on Zillow,https://www.zillow.com/homedetails/3338-Peachtree-Rd-NE-APT-2105-Atlanta-GA-30326/2063210424_zpid/,06-10-2022_18:57:36
565 E Wesley Rd NE,Atlanta,GA,30305,"$974,900",5,4,--,33.830452,-84.36919,House for sale,35932995,1 day on Zillow,https://www.zillow.com/homedetails/565-E-Wesley-Rd-NE-Atlanta-GA-30305/35932995_zpid/,06-10-2022_18:57:36
480 John Wesley Dobbs Ave NE UNIT 609,Atlanta,GA,30312,"$335,000",1,1,960,33.75975,-84.37081,Condo for sale,2066269449,1 day on Zillow,https://www.zillow.com/homedetails/480-John-Wesley-Dobbs-Ave-NE-UNIT-609-Atlanta-GA-30312/2066269449_zpid/,06-10-2022_18:57:36
496 Shannon Dr SW,Atlanta,GA,30310,"$509,900",3,2,"1,645",33.71651,-84.40392,House for sale,35891407,Open: Sun. 12-3pm,https://www.zillow.com/homedetails/496-Shannon-Dr-SW-Atlanta-GA-30310/35891407_zpid/,06-10-2022_18:57:36
1240 Reeder Cir,Atlanta,GA,30306,"$1,895,000",5,5,"4,618",33.79375,-84.34654,House for sale,14521089,Open: Sun. 3-5pm,https://www.zillow.com/homedetails/1240-Reeder-Cir-Atlanta-GA-30306/14521089_zpid/,06-10-2022_18:57:36
481 Lakeshore Dr,Atlanta,GA,30307,"$725,000",3,2,"1,476",33.767384,-84.3246,House for sale,14478284,Play video iconVideo Walkthrough,https://www.zillow.com/homedetails/481-Lakeshore-Dr-Atlanta-GA-30307/14478284_zpid/,06-10-2022_18:57:36
823 E Morningside Dr NE,Atlanta,GA,30324,"$875,000",4,3,"1,976",33.79807,-84.36051,House for sale,35929973,Open: Sun. 2-4pm,https://www.zillow.com/homedetails/823-E-Morningside-Dr-NE-Atlanta-GA-30324/35929973_zpid/,06-10-2022_18:57:36
101 Carter Ave,Atlanta,GA,30317,"$625,000",3,3,"1,938",33.749264,-84.30561,House for sale,14465600,Open: Sun. 2-4pm,https://www.zillow.com/homedetails/101-Carter-Ave-Atlanta-GA-30317/14465600_zpid/,06-10-2022_18:57:36
623 Kent St SE,Atlanta,GA,30312,"$679,000",3,2,"1,648",33.737644,-84.37771,House for sale,35877443,Open: Sun. 1-3pm,https://www.zillow.com/homedetails/623-Kent-St-SE-Atlanta-GA-30312/35877443_zpid/,06-10-2022_18:57:36
1445 Monroe Dr NE APT F32,Atlanta,GA,30324,"$289,900",2,2,"1,060",33.79404,-84.36567,Condo for sale,69382055,1 day on Zillow,https://www.zillow.com/homedetails/1445-Monroe-Dr-NE-APT-F32-Atlanta-GA-30324/69382055_zpid/,06-10-2022_18:57:36
1232 Holly St NW,Atlanta,GA,30318,"$489,900",3,2,"1,280",33.788475,-84.396065,House for sale,35899516,1 day on Zillow,https://www.zillow.com/homedetails/1232-Holly-St-NW-Atlanta-GA-30318/35899516_zpid/,06-10-2022_18:57:36
390 17th St NW UNIT 4019,Atlanta,GA,30363,"$343,000",2,2,"1,166",33.79032,-84.39955,Condo for sale,2087627051,Open: Sun. 1-4pm,https://www.zillow.com/homedetails/390-17th-St-NW-UNIT-4019-Atlanta-GA-30363/2087627051_zpid/,06-10-2022_18:57:36
788 W Marietta St NW #412,Atlanta,GA,30318,"$294,900",,1,616,33.780006,-84.4147,New construction,2076555395,Open: Th: 12:00 PM-5:00...,https://www.zillow.com/homedetails/788-W-Marietta-St-NW-412-Atlanta-GA-30318/2076555395_zpid/,06-10-2022_18:57:36
513 Daniel Ave,Decatur,GA,30032,"$459,000",3,3,"1,700",33.73857,-84.29969,House for sale,14453868,Open: Sun. 2-5pm,https://www.zillow.com/homedetails/513-Daniel-Ave-Decatur-GA-30032/14453868_zpid/,06-10-2022_18:57:36
3481 Lakeside Dr NE APT 1308,Atlanta,GA,30326,"$250,000",2,1,950,33.849083,-84.35714,Condo for sale,2062924867,1 day on Zillow,https://www.zillow.com/homedetails/3481-Lakeside-Dr-NE-APT-1308-Atlanta-GA-30326/2062924867_zpid/,06-10-2022_18:57:36
788 W Marietta St NW #906,Atlanta,GA,30318,"$420,900",1,1,847,33.780106,-84.41462,New construction,2062922545,Open: Sat. 12-4pm,https://www.zillow.com/homedetails/788-W-Marietta-St-NW-906-Atlanta-GA-30318/2062922545_zpid/,06-10-2022_18:57:36
1078 Ashby Grv SW,Atlanta,GA,30314,"$350,000",4,2,"1,609",33.749676,-84.42298,House for sale,35834964,Open: Sun. 2-4pm,https://www.zillow.com/homedetails/1078-Ashby-Grv-SW-Atlanta-GA-30314/35834964_zpid/,06-10-2022_18:57:36
1432 Mims St SW,Atlanta,GA,30314,"$198,000",3,1,"1,094",33.749256,-84.43432,House for sale,35844237,1 day on Zillow,https://www.zillow.com/homedetails/1432-Mims-St-SW-Atlanta-GA-30314/35844237_zpid/,06-10-2022_18:57:36
300 W Peachtree St NW #21J,Atlanta,GA,30308,"$223,000",1,1,722,33.762566,-84.38788,Condo for sale,2080152178,1 day on Zillow,https://www.zillow.com/homedetails/300-W-Peachtree-St-NW-21J-Atlanta-GA-30308/2080152178_zpid/,06-10-2022_18:57:36
1147 Arlington Ave SW,Atlanta,GA,30310,"$435,000",6,2,"2,079",33.72513,-84.42538,House for sale,35835967,1 day on Zillow,https://www.zillow.com/homedetails/1147-Arlington-Ave-SW-Atlanta-GA-30310/35835967_zpid/,06-10-2022_18:57:36
1421 Beecher St SW,Atlanta,GA,30310,"$385,000",3,2,"1,522",33.733616,-84.434204,House for sale,35842206,1 day on Zillow,https://www.zillow.com/homedetails/1421-Beecher-St-SW-Atlanta-GA-30310/35842206_zpid/,06-10-2022_18:57:36
1946 Austin Rd SW,Atlanta,GA,30331,"$175,000",3,2,"2,023",33.702354,-84.51044,House for sale,35887563,1 day on Zillow,https://www.zillow.com/homedetails/1946-Austin-Rd-SW-Atlanta-GA-30331/35887563_zpid/,06-10-2022_18:57:36
1625 Stanwood Ave,Atlanta,GA,30317,"$1,149,000",5,3,"3,600",33.75174,-84.33431,House for sale,89580550,"Price cut: $141,000 (Jun 9)",https://www.zillow.com/homedetails/1625-Stanwood-Ave-Atlanta-GA-30317/89580550_zpid/,06-10-2022_18:57:36
Winn Plan,,,,"$724,995",3,4,"2,044",33.803326,-84.36686,New construction,2063471677,Open: M: 11:00 AM-6:00 ...,https://www.zillow.com/community/beckham-place-at-morningside/2063471677_zpid/,06-10-2022_18:57:36
Hutton Plan,,,,"$665,990",3,3,"2,349",33.79663,-84.4072,New construction,2063157508,Open: TEMPORARILY SOLD ...,https://www.zillow.com/community/easton/2063157508_zpid/,06-10-2022_18:57:36
1256 Spring Valley Ln,Atlanta,GA,30306,"$1,625,000",5,5,"3,579",33.791874,-84.34632,House for sale,14520873,2 days on Zillow,https://www.zillow.com/homedetails/1256-Spring-Valley-Ln-Atlanta-GA-30306/14520873_zpid/,06-10-2022_18:57:36
855 Peachtree St NE UNIT 1701,Atlanta,GA,30308,"$369,000",1,1,802,33.777798,-84.3839,Condo for sale,2062911658,2 days on Zillow,https://www.zillow.com/homedetails/855-Peachtree-St-NE-UNIT-1701-Atlanta-GA-30308/2062911658_zpid/,06-10-2022_18:57:36
1524 S Gordon St SW,Atlanta,GA,30310,"$525,000",3,2,"1,935",33.739475,-84.43779,House for sale,35847120,Open: Sun. 2-4pm,https://www.zillow.com/homedetails/1524-S-Gordon-St-SW-Atlanta-GA-30310/35847120_zpid/,06-10-2022_18:57:36
613 Sherwood Rd NE,Atlanta,GA,30324,"$965,000",3,2,"2,788",33.797146,-84.36689,House for sale,35929864,Open: Sun. 3-5pm,https://www.zillow.com/homedetails/613-Sherwood-Rd-NE-Atlanta-GA-30324/35929864_zpid/,06-10-2022_18:57:36
600 Jewel Dr SW,Atlanta,GA,30331,"$569,900",5,5,"3,522",33.724163,-84.549446,House for sale,65463102,Open: Sat. 12-2pm,https://www.zillow.com/homedetails/600-Jewel-Dr-SW-Atlanta-GA-30331/65463102_zpid/,06-10-2022_18:57:36
878 Briarcliff Rd NE APT A2,Atlanta,GA,30306,"$499,000",2,4,"2,394",33.778675,-84.34634,Condo for sale,2089423604,2 days on Zillow,https://www.zillow.com/homedetails/878-Briarcliff-Rd-NE-APT-A2-Atlanta-GA-30306/2089423604_zpid/,06-10-2022_18:57:36
3660 Peachtree Rd NE APT E2,Atlanta,GA,30319,"$239,900",2,2,"1,200",33.85478,-84.356155,Condo for sale,2062927075,2 days on Zillow,https://www.zillow.com/homedetails/3660-Peachtree-Rd-NE-APT-E2-Atlanta-GA-30319/2062927075_zpid/,06-10-2022_18:57:36
2309 Sisk St NW,Atlanta,GA,30318,"$175,000",2,1,924,33.781067,-84.4637,House for sale,35922906,2 days on Zillow,https://www.zillow.com/homedetails/2309-Sisk-St-NW-Atlanta-GA-30318/35922906_zpid/,06-10-2022_18:57:36
1382 Allene Ave SW,Atlanta,GA,30310,"$440,000",3,2,"1,525",33.717304,-84.41257,House for sale,69342901,Open: Sat. 12-2pm,https://www.zillow.com/homedetails/1382-Allene-Ave-SW-Atlanta-GA-30310/69342901_zpid/,06-10-2022_18:57:36
27 Peachtree Hills Ave NE,Atlanta,GA,30305,"$750,000",-,-,--,33.817654,-84.38759,Multi-family home for sale,35900795,2 days on Zillow,https://www.zillow.com/homedetails/27-Peachtree-Hills-Ave-NE-Atlanta-GA-30305/35900795_zpid/,06-10-2022_18:57:36
339 Henry Aaron Ave SW,Atlanta,GA,30310,"$399,000",5,4,"2,095",33.74631,-84.457466,House for sale,88827053,"Price cut: $21,000 (Jun 6)",https://www.zillow.com/homedetails/339-Henry-Aaron-Ave-SW-Atlanta-GA-30310/88827053_zpid/,06-10-2022_18:57:36
265 Eureka Dr NE,Atlanta,GA,30305,"$760,000",3,2,--,33.82029,-84.378914,New construction,35897003,2 days on Zillow,https://www.zillow.com/homedetails/265-Eureka-Dr-NE-Atlanta-GA-30305/35897003_zpid/,06-10-2022_18:57:36
114 Elysian Way NW,Atlanta,GA,30327,"$279,000",2,3,"1,288",33.823444,-84.424164,Condo for sale,35915138,2 days on Zillow,https://www.zillow.com/homedetails/114-Elysian-Way-NW-Atlanta-GA-30327/35915138_zpid/,06-10-2022_18:57:36
1195 Milton Ter SE APT 4303,Atlanta,GA,30315,"$232,900",2,2,"1,064",33.72244,-84.38037,Townhouse for sale,2087015645,3 days on Zillow,https://www.zillow.com/homedetails/1195-Milton-Ter-SE-APT-4303-Atlanta-GA-30315/2087015645_zpid/,06-10-2022_18:57:36
1847 Gotham Way NE #11,Atlanta,GA,30324,"$774,985",3,4,"1,851",33.807415,-84.37017,New construction,2062952005,3 days on Zillow,https://www.zillow.com/homedetails/1847-Gotham-Way-NE-11-Atlanta-GA-30324/2062952005_zpid/,06-10-2022_18:57:36
119 Le Brun Rd NE,Atlanta,GA,30342,"$849,900",,-,"2,956",33.86051,-84.383446,House for sale,35942423,Price cut: $100 (Jun 7),https://www.zillow.com/homedetails/119-Le-Brun-Rd-NE-Atlanta-GA-30342/35942423_zpid/,06-10-2022_18:57:36
Middleton 2B Plan,,,,"$525,324",2,2,"1,162",33.8768,-84.3779,New construction,2063356040,3 days on Zillow,https://www.zillow.com/community/dalston/2063356040_zpid/,06-10-2022_18:57:36
2990 Hardman Ct NE,Atlanta,GA,30305,"$1,395,000",3,3,--,33.836437,-84.37096,House for sale,35933111,3 days on Zillow,https://www.zillow.com/homedetails/2990-Hardman-Ct-NE-Atlanta-GA-30305/35933111_zpid/,06-10-2022_18:57:36
1445 Monroe Dr NE APT E51,Atlanta,GA,30324,"$205,000",1,1,720,33.79404,-84.36567,Condo for sale,2062955751,3 days on Zillow,https://www.zillow.com/homedetails/1445-Monroe-Dr-NE-APT-E51-Atlanta-GA-30324/2062955751_zpid/,06-10-2022_18:57:36
341 Meadowbrook Dr NE,Atlanta,GA,30342,"$899,000",3,3,"2,500",33.877796,-84.37606,House for sale,35934073,Play video iconVideo Walkthrough,https://www.zillow.com/homedetails/341-Meadowbrook-Dr-NE-Atlanta-GA-30342/35934073_zpid/,06-10-2022_18:57:36
MANSFIELD Plan,,,,"$457,990",5,4,"3,411",33.67982,-84.61315,New construction,2063164532,Open: Daily By Appointm...,https://www.zillow.com/community/glen-at-cascading-palms/2063164532_zpid/,06-10-2022_18:57:36
Oakmont Plan,,,,"$400,900",4,3,"2,340",33.665386,-84.54891,New construction,2067441724,Open: Mo through Sa 11-...,https://www.zillow.com/community/camp-creek-village/2067441724_zpid/,06-10-2022_18:57:36
356 Cologne Dr SE,Atlanta,GA,30354,"$180,900",3,1,"1,000",33.663376,-84.378395,House for sale,35875376,5 days on Zillow,https://www.zillow.com/homedetails/356-Cologne-Dr-SE-Atlanta-GA-30354/35875376_zpid/,06-10-2022_18:57:36
Avery Plan,,,,"$700,000",3,4,"2,294",33.773376,-84.42121,New construction,2071268320,Open: Monday - Tuesday:...,https://www.zillow.com/community/ten29-west/2071268320_zpid/,06-10-2022_18:57:36
Fairmont (Interior Unit) Plan,,,,"$853,185",3,5,"2,900",33.791492,-84.42176,New construction,2067462816,Open: Wednesday - Satur...,https://www.zillow.com/community/hayden-westside/2067462816_zpid/,06-10-2022_18:57:36
756 Ormewood Ave SE,Atlanta,GA,30312,"$664,900",3,3,"1,843",33.733967,-84.36272,House for sale,35867674,6 days on Zillow,https://www.zillow.com/homedetails/756-Ormewood-Ave-SE-Atlanta-GA-30312/35867674_zpid/,06-10-2022_18:57:36
3291 W Roxboro Rd NE,Atlanta,GA,30324,"$2,500,000",6,6,"5,865",33.844322,-84.3494,New construction,35938321,6 days on Zillow,https://www.zillow.com/homedetails/3291-W-Roxboro-Rd-NE-Atlanta-GA-30324/35938321_zpid/,06-10-2022_18:57:36
1010 E Club Ln NE,Atlanta,GA,30319,"$3,800,000",5,6,"5,899",33.870014,-84.34964,New construction,35903181,6 days on Zillow,https://www.zillow.com/homedetails/1010-E-Club-Ln-NE-Atlanta-GA-30319/35903181_zpid/,06-10-2022_18:57:36
Atlantic Plan,,,,"$550,000",4,5,"2,912",33.795906,-84.455986,New construction,2064172537,Open: M: 1:00 PM-5:00 P...,https://www.zillow.com/community/west-highlands/2064172537_zpid/,06-10-2022_18:57:36
943 Peachtree St NE UNIT 1507,Atlanta,GA,30309,"$375,000",1,1,696,33.811386,-84.39234,Condo for sale,2088282419,3D Homes Icon3D Tour,https://www.zillow.com/homedetails/943-Peachtree-St-NE-UNIT-1507-Atlanta-GA-30309/2088282419_zpid/,06-10-2022_18:57:36
2436 Northside Dr NW,Atlanta,GA,30305,"$1,360,000",4,3,"3,292",33.821503,-84.40834,House for sale,119315947,7 days on Zillow,https://www.zillow.com/homedetails/2436-Northside-Dr-NW-Atlanta-GA-30305/119315947_zpid/,06-10-2022_18:57:36
115 Dahlia Ave NW,Atlanta,GA,30314,"$89,000",,,"5,663",33.75626,-84.461914,Lot / Land for sale,35857223,7 days on Zillow,https://www.zillow.com/homedetails/115-Dahlia-Ave-NW-Atlanta-GA-30314/35857223_zpid/,06-10-2022_18:57:36
463 Euclid Ter,Atlanta,GA,30307,"$785,000",2,3,"1,857",33.766987,-84.34661,House for sale,14479169,7 days on Zillow,https://www.zillow.com/homedetails/463-Euclid-Ter-Atlanta-GA-30307/14479169_zpid/,06-10-2022_18:57:36
199 12th St NE UNIT 6,Atlanta,GA,30309,"$799,000",2,2,"1,824",33.783882,-84.38111,Townhouse for sale,69381863,"Price cut: $26,000 (Apr 28)",https://www.zillow.com/homedetails/199-12th-St-NE-UNIT-6-Atlanta-GA-30309/69381863_zpid/,06-10-2022_18:57:36
3144 Meadowstone Ln SW,Atlanta,GA,30331,"$299,900",3,3,"1,336",33.667786,-84.49345,Townhouse for sale,171478102,7 days on Zillow,https://www.zillow.com/homedetails/3144-Meadowstone-Ln-SW-Atlanta-GA-30331/171478102_zpid/,06-10-2022_18:57:36
170 Boulevard SE APT H523,Atlanta,GA,30312,"$789,000",1,1,"1,750",33.75111,-84.36879,Condo for sale,2084464600,Play video iconVideo Walkthrough,https://www.zillow.com/homedetails/170-Boulevard-SE-APT-H523-Atlanta-GA-30312/2084464600_zpid/,06-10-2022_18:57:36
1905 Wildwood Pl NE,Atlanta,GA,30324,"$869,000",3,2,--,33.80675,-84.36224,House for sale,35929315,7 days on Zillow,https://www.zillow.com/homedetails/1905-Wildwood-Pl-NE-Atlanta-GA-30324/35929315_zpid/,06-10-2022_18:57:36
PH-1 Plan,,,788,"$1,398,400",3,3,"2,525",33.77982,-84.414215,New construction,2080303936,Open: Th: 12:00 PM-5:00...,https://www.zillow.com/community/788-west-midtown/2080303936_zpid/,06-10-2022_18:57:36
975 Piedmont Ave SW #3,Atlanta,GA,30309,"$1,225,000",3,4,"2,625",,,Townhouse for sale,2065803885,8 days on Zillow,https://www.zillow.com/homedetails/975-Piedmont-Ave-SW-3-Atlanta-GA-30309/2065803885_zpid/,06-10-2022_18:57:36
82 La Rue Pl NW,Atlanta,GA,30327,"$220,000",-,-,--,33.81713,-84.42478,Multi-family home for sale,2062994418,8 days on Zillow,https://www.zillow.com/homedetails/82-La-Rue-Pl-NW-Atlanta-GA-30327/2062994418_zpid/,06-10-2022_18:57:36
1111 Montreat Ave SW,Atlanta,GA,30310,"$549,900",4,3,"2,089",33.72993,-84.42419,New construction,335695616,Open: Sun. 2-4pm,https://www.zillow.com/homedetails/1111-Montreat-Ave-SW-Atlanta-GA-30310/335695616_zpid/,06-10-2022_18:57:36
4592 Club Cir NE,Atlanta,GA,30319,"$779,500",3,4,"1,868",33.88013,-84.35414,House for sale,35905140,8 days on Zillow,https://www.zillow.com/homedetails/4592-Club-Cir-NE-Atlanta-GA-30319/35905140_zpid/,06-10-2022_18:57:36
327 Lakemoore Dr NE APT B,Atlanta,GA,30342,"$225,000",2,2,"1,168",33.865448,-84.37698,Condo for sale,35933921,8 days on Zillow,https://www.zillow.com/homedetails/327-Lakemoore-Dr-NE-APT-B-Atlanta-GA-30342/35933921_zpid/,06-10-2022_18:57:36
1200 S Ponce De Leon Ave NE UNIT A10,Atlanta,GA,30306,"$936,400",3,4,"2,268",33.77471,-84.348145,New construction,2081579651,Open: By appointment on...,https://www.zillow.com/homedetails/1200-S-Ponce-De-Leon-Ave-NE-UNIT-A10-Atlanta-GA-30306/2081579651_zpid/,06-10-2022_18:57:36
311 Peachtree Hills Ave NE APT 12E,Atlanta,GA,30305,"$279,000",2,1,"1,020",33.81585,-84.37765,Condo for sale,65467078,8 days on Zillow,https://www.zillow.com/homedetails/311-Peachtree-Hills-Ave-NE-APT-12E-Atlanta-GA-30305/65467078_zpid/,06-10-2022_18:57:36
1908 W Kimberly Rd SW,Atlanta,GA,30331,"$528,000",4,3,"2,200",33.70271,-84.5236,House for sale,65449655,8 days on Zillow,https://www.zillow.com/homedetails/1908-W-Kimberly-Rd-SW-Atlanta-GA-30331/65449655_zpid/,06-10-2022_18:57:36
383 Grant Cir NE #1613,Atlanta,GA,30315,"$684,900",2,2,"1,529",33.72538,-84.37593,New construction,2063004312,8 days on Zillow,https://www.zillow.com/homedetails/383-Grant-Cir-NE-1613-Atlanta-GA-30315/2063004312_zpid/,06-10-2022_18:57:36
B6 Plan,,,,"$699,900",2,2,"1,345",33.77537,-84.38254,New construction,2067491007,Open: M: 12:00 PM-5:00 ...,https://www.zillow.com/community/j5/2067491007_zpid/,06-10-2022_18:57:36
578 Goldsboro Rd NE APT D,Atlanta,GA,30307,"$239,900",2,1,840,33.770187,-84.343925,Condo for sale,2146946979,3D Homes Icon3D Tour,https://www.zillow.com/homedetails/578-Goldsboro-Rd-NE-APT-D-Atlanta-GA-30307/2146946979_zpid/,06-10-2022_18:57:36
51 Blackland Rd NW,Atlanta,GA,30342,"$7,750,000",7,9,"11,333",33.855835,-84.38618,New construction,35942408,8 days on Zillow,https://www.zillow.com/homedetails/51-Blackland-Rd-NW-Atlanta-GA-30342/35942408_zpid/,06-10-2022_18:57:36
1152 Oakland Dr SW,Atlanta,GA,30310,"$499,900",3,2,"1,400",33.72344,-84.42703,House for sale,35836185,8 days on Zillow,https://www.zillow.com/homedetails/1152-Oakland-Dr-SW-Atlanta-GA-30310/35836185_zpid/,06-10-2022_18:57:36
4411 Paces Battle NW,Atlanta,GA,30327,"$950,000",3,4,"4,989",33.865025,-84.45287,House for sale,35922068,Open: Sun. 3-5pm,https://www.zillow.com/homedetails/4411-Paces-Battle-NW-Atlanta-GA-30327/35922068_zpid/,06-10-2022_18:57:36
2762 Arbor Ave,Atlanta,GA,30317,"$585,000",3,2,"1,715",33.750492,-84.29651,House for sale,14465033,8 days on Zillow,https://www.zillow.com/homedetails/2762-Arbor-Ave-Atlanta-GA-30317/14465033_zpid/,06-10-2022_18:57:36
653 Bonaventure Ave NE APT 8,Atlanta,GA,30306,"$529,000",2,2,"1,254",33.77237,-84.36064,Condo for sale,65460868,8 days on Zillow,https://www.zillow.com/homedetails/653-Bonaventure-Ave-NE-APT-8-Atlanta-GA-30306/65460868_zpid/,06-10-2022_18:57:36
710 Mill Walk NW,Atlanta,GA,30327,"$739,900",3,5,"4,398",33.8422,-84.410484,Condo for sale,35911379,8 days on Zillow,https://www.zillow.com/homedetails/710-Mill-Walk-NW-Atlanta-GA-30327/35911379_zpid/,06-10-2022_18:57:36
3660 Peachtree Rd NE APT A8,Atlanta,GA,30319,"$267,000",2,2,"1,200",33.85479,-84.35621,Condo for sale,2090293693,"Price cut: $7,900 (Jun 2)",https://www.zillow.com/homedetails/3660-Peachtree-Rd-NE-APT-A8-Atlanta-GA-30319/2090293693_zpid/,06-10-2022_18:57:36
83 Park Cir NE,Atlanta,GA,30305,"$1,495,000",5,5,"3,708",33.841293,-84.36772,House for sale,35928563,Open: Sun. 2-4pm,https://www.zillow.com/homedetails/83-Park-Cir-NE-Atlanta-GA-30305/35928563_zpid/,06-10-2022_18:57:36
650 Moores Mill Rd NW #15,Atlanta,GA,30327,"$1,500,000",3,3,--,33.843315,-84.40876,Townhouse for sale,35911343,Play video iconVideo Walkthrough,https://www.zillow.com/homedetails/650-Moores-Mill-Rd-NW-15-Atlanta-GA-30327/35911343_zpid/,06-10-2022_18:57:36
3727 Tuxedo Rd NW,Atlanta,GA,30305,"$5,999,000",,,,33.857056,-84.392265,Lot / Land for sale,35902487,Play video iconVideo Walkthrough,https://www.zillow.com/homedetails/3727-Tuxedo-Rd-NW-Atlanta-GA-30305/35902487_zpid/,06-10-2022_18:57:36
309 Blackland Rd NW,Atlanta,GA,30342,"$6,250,000",6,9,"7,243",33.860264,-84.39764,House for sale,35907205,9 days on Zillow,https://www.zillow.com/homedetails/309-Blackland-Rd-NW-Atlanta-GA-30342/35907205_zpid/,06-10-2022_18:57:36
1875 Cambria Ave NW,Atlanta,GA,30318,"$725,000",4,4,"2,988",33.806503,-84.41916,House for sale,35915990,"Price cut: $25,000 (Jun 10)",https://www.zillow.com/homedetails/1875-Cambria-Ave-NW-Atlanta-GA-30318/35915990_zpid/,06-10-2022_18:57:36
1475 Hawthorne Ave NW,Atlanta,GA,30309,"$783,000",4,2,"2,160",33.795227,-84.40526,House for sale,35908983,9 days on Zillow,https://www.zillow.com/homedetails/1475-Hawthorne-Ave-NW-Atlanta-GA-30309/35908983_zpid/,06-10-2022_18:57:36
971 Laurel Ct NE,Atlanta,GA,30326,"$1,070,000",3,4,"2,448",33.849983,-84.35539,Townhouse for sale,2081499437,9 days on Zillow,https://www.zillow.com/homedetails/971-Laurel-Ct-NE-Atlanta-GA-30326/2081499437_zpid/,06-10-2022_18:57:36
842 White St SW,Atlanta,GA,30310,"$334,000",3,3,"2,366",33.731834,-84.41535,House for sale,35831591,9 days on Zillow,https://www.zillow.com/homedetails/842-White-St-SW-Atlanta-GA-30310/35831591_zpid/,06-10-2022_18:57:36
4772 Holly Grape Dr,Atlanta,GA,30331,"$495,000",5,4,"3,403",,,New construction,2063004984,9 days on Zillow,https://www.zillow.com/homedetails/4772-Holly-Grape-Dr-Atlanta-GA-30331/2063004984_zpid/,06-10-2022_18:57:36
870 Mayson Turner Rd NW UNIT 1423,Atlanta,GA,30314,"$184,900",2,2,"1,082",33.755898,-84.41711,Condo for sale,2132563973,9 days on Zillow,https://www.zillow.com/homedetails/870-Mayson-Turner-Rd-NW-UNIT-1423-Atlanta-GA-30314/2132563973_zpid/,06-10-2022_18:57:36
B-5 Plan,,,788,"$871,900",2,3,"1,790",33.77982,-84.414215,New construction,2075163627,Open: Th: 12:00 PM-5:00...,https://www.zillow.com/community/788-west-midtown/2075163627_zpid/,06-10-2022_18:57:36
188 Marion Pl,Atlanta,GA,30307,"$585,000",3,5,"2,468",33.758957,-84.345276,Townhouse for sale,112749005,9 days on Zillow,https://www.zillow.com/homedetails/188-Marion-Pl-Atlanta-GA-30307/112749005_zpid/,06-10-2022_18:57:36
4772 Holly Grape Dr #5,Atlanta,GA,30331,"$495,000",5,4,"3,403",,,New construction,2063005844,9 days on Zillow,https://www.zillow.com/homedetails/4772-Holly-Grape-Dr-5-Atlanta-GA-30331/2063005844_zpid/,06-10-2022_18:57:36
4751 Holly Grape Dr #13,Atlanta,GA,30331,"$558,915",6,5,"3,791",,,New construction,2063005915,9 days on Zillow,https://www.zillow.com/homedetails/4751-Holly-Grape-Dr-13-Atlanta-GA-30331/2063005915_zpid/,06-10-2022_18:57:36
270 17th St NW UNIT 3404,Atlanta,GA,30363,"$829,900",3,3,"2,152",33.790936,-84.39744,Condo for sale,2067019447,9 days on Zillow,https://www.zillow.com/homedetails/270-17th-St-NW-UNIT-3404-Atlanta-GA-30363/2067019447_zpid/,06-10-2022_18:57:36
0 Benjamin E Mays Dr SW,Atlanta,GA,30311,"$2,000,000",,,,33.723396,-84.46361,Lot / Land for sale,2082925438,9 days on Zillow,https://www.zillow.com/homedetails/0-Benjamin-E-Mays-Dr-SW-Atlanta-GA-30311/2082925438_zpid/,06-10-2022_18:57:36
4076 Waits Ave SW,Atlanta,GA,30331,"$39,900",,,"7,405",33.69271,-84.52264,Lot / Land for sale,249115897,9 days on Zillow,https://www.zillow.com/homedetails/4076-Waits-Ave-SW-Atlanta-GA-30331/249115897_zpid/,06-10-2022_18:57:36
975 Azalee Hester Wharton Way NW,Atlanta,GA,30318,"$849,000",5,4,"3,075",33.790802,-84.42022,House for sale,249123463,Open: Sat. 1-3pm,https://www.zillow.com/homedetails/975-Azalee-Hester-Wharton-Way-NW-Atlanta-GA-30318/249123463_zpid/,06-10-2022_18:57:36
3435 Kingsboro Rd NE APT 1201,Atlanta,GA,30326,"$400,000",2,2,"1,680",33.849358,-84.3586,Condo for sale,2063052545,10 days on Zillow,https://www.zillow.com/homedetails/3435-Kingsboro-Rd-NE-APT-1201-Atlanta-GA-30326/2063052545_zpid/,06-10-2022_18:57:36
1101 Juniper St NE APT 1504,Atlanta,GA,30309,"$415,000",2,2,"1,161",33.784767,-84.38186,Condo for sale,55019664,10 days on Zillow,https://www.zillow.com/homedetails/1101-Juniper-St-NE-APT-1504-Atlanta-GA-30309/55019664_zpid/,06-10-2022_18:57:36
1301 Peachtree St #4H,Atlanta,GA,30309,"$2,575,000",3,4,"3,300",,,Condo for sale,2069348136,Play video iconVideo Walkthrough,https://www.zillow.com/homedetails/1301-Peachtree-St-4H-Atlanta-GA-30309/2069348136_zpid/,06-10-2022_18:57:36
48 Booker St NW,Atlanta,GA,30314,"$199,000",2,1,"1,222",33.756107,-84.42065,House for sale,35834462,10 days on Zillow,https://www.zillow.com/homedetails/48-Booker-St-NW-Atlanta-GA-30314/35834462_zpid/,06-10-2022_18:57:36
(undisclosed Address),Atlanta,GA,30315,"$380,000",3,2,960,,,House for sale,65441687,10 days on Zillow,https://www.zillow.com/homedetails/Atlanta-GA-30315/65441687_zpid/,06-10-2022_18:57:36
D5 Plan,,,,"$749,900",2,3,"2,135",33.790936,-84.39744,New construction,2070239442,Open: W: 12:00 PM-5:00 ...,https://www.zillow.com/community/atlantic/2070239442_zpid/,06-10-2022_18:57:36
21 Moreland Ave NE,Atlanta,GA,30316,"$384,900",3,2,"1,426",,,House for sale,2067459624,"Price cut: $10,000 (May 11)",https://www.zillow.com/homedetails/21-Moreland-Ave-NE-Atlanta-GA-30316/2067459624_zpid/,06-10-2022_18:57:36
570 Grant St SW,Atlanta,GA,30315,"$300,000",4,4,"2,840",33.702682,-84.40712,New construction,35891664,10 days on Zillow,https://www.zillow.com/homedetails/570-Grant-St-SW-Atlanta-GA-30315/35891664_zpid/,06-10-2022_18:57:36
288 Logan St SE,Atlanta,GA,30312,"$600,000",3,2,"1,735",33.74474,-84.37819,House for sale,35881804,10 days on Zillow,https://www.zillow.com/homedetails/288-Logan-St-SE-Atlanta-GA-30312/35881804_zpid/,06-10-2022_18:57:36
H Plan,,,,"$924,900",3,3,"2,014",33.790936,-84.39744,New construction,2070239436,Open: W: 12:00 PM-5:00 ...,https://www.zillow.com/community/atlantic/2070239436_zpid/,06-10-2022_18:57:36
4674 Lanark Dr SW,Atlanta,GA,30331,"$315,000",3,2,"1,752",33.712517,-84.540886,House for sale,65450750,12 days on Zillow,https://www.zillow.com/homedetails/4674-Lanark-Dr-SW-Atlanta-GA-30331/65450750_zpid/,06-10-2022_18:57:36
PH-6 Plan,,,788,"$597,900",1,1,"1,007",33.77982,-84.414215,New construction,2075163616,Open: Th: 12:00 PM-5:00...,https://www.zillow.com/community/788-west-midtown/2075163616_zpid/,06-10-2022_18:57:36
Hickory Plan,,,,"$550,000",3,3,"2,466",33.795906,-84.455986,New construction,2064172539,Open: M: 1:00 PM-5:00 P...,https://www.zillow.com/community/west-highlands/2064172539_zpid/,06-10-2022_18:57:36
2029 Detroit Ave NW,Atlanta,GA,30314,"$334,900",3,2,"1,326",33.767326,-84.45355,House for sale,35855798,Price cut: $99 (Jun 9),https://www.zillow.com/homedetails/2029-Detroit-Ave-NW-Atlanta-GA-30314/35855798_zpid/,06-10-2022_18:57:36
3481 Lakeside Dr NE APT 2501,Atlanta,GA,30326,"$230,000",1,1,950,33.849083,-84.35714,Condo for sale,2063065987,12 days on Zillow,https://www.zillow.com/homedetails/3481-Lakeside-Dr-NE-APT-2501-Atlanta-GA-30326/2063065987_zpid/,06-10-2022_18:57:36
993 N Ave NE,Atlanta,GA,30306,"$665,000",3,2,"1,380",33.771458,-84.35631,House for sale,35847684,13 days on Zillow,https://www.zillow.com/homedetails/993-N-Ave-NE-Atlanta-GA-30306/35847684_zpid/,06-10-2022_18:57:36
4249 Olde Mill Ln NE,Atlanta,GA,30342,"$1,699,000",4,5,"6,759",33.870243,-84.37506,House for sale,65442522,Play video iconVideo Walkthrough,https://www.zillow.com/homedetails/4249-Olde-Mill-Ln-NE-Atlanta-GA-30342/65442522_zpid/,06-10-2022_18:57:36
426 Marietta St NW APT 410,Atlanta,GA,30313,"$290,000",1,1,900,33.76456,-84.39765,Condo for sale,82621722,13 days on Zillow,https://www.zillow.com/homedetails/426-Marietta-St-NW-APT-410-Atlanta-GA-30313/82621722_zpid/,06-10-2022_18:57:36
3013 Delmar Ln NW,Atlanta,GA,30311,"$125,000",2,1,980,33.75606,-84.485596,House for sale,35870704,14 days on Zillow,https://www.zillow.com/homedetails/3013-Delmar-Ln-NW-Atlanta-GA-30311/35870704_zpid/,06-10-2022_18:57:36
1393 Boat Rock Rd SW,Atlanta,GA,30331,"$669,900",8,7,"7,882",33.717377,-84.560555,House for sale,35892160,14 days on Zillow,https://www.zillow.com/homedetails/1393-Boat-Rock-Rd-SW-Atlanta-GA-30331/35892160_zpid/,06-10-2022_18:57:36
2547 Etheridge Dr NW,Atlanta,GA,30318,"$99,000",,,,33.788334,-84.47128,Lot / Land for sale,35923100,Price cut: $900 (May 27),https://www.zillow.com/homedetails/2547-Etheridge-Dr-NW-Atlanta-GA-30318/35923100_zpid/,06-10-2022_18:57:36
418 9th St NE,Atlanta,GA,30309,"$2,499,900",5,6,--,33.78083,-84.3735,New construction,35931307,14 days on Zillow,https://www.zillow.com/homedetails/418-9th-St-NE-Atlanta-GA-30309/35931307_zpid/,06-10-2022_18:57:36
3552 Oakshire Way SE,Atlanta,GA,30354,"$395,000",5,3,--,33.65574,-84.35149,House for sale,82612056,14 days on Zillow,https://www.zillow.com/homedetails/3552-Oakshire-Way-SE-Atlanta-GA-30354/82612056_zpid/,06-10-2022_18:57:36
424 Greencove Ln,Atlanta,GA,30316,"$744,900",4,3,"2,600",33.742306,-84.333046,House for sale,14456756,"Price cut: $10,000 (Jun 6)",https://www.zillow.com/homedetails/424-Greencove-Ln-Atlanta-GA-30316/14456756_zpid/,06-10-2022_18:57:36
1094 Regent St SW,Atlanta,GA,30310,"$397,000",5,3,"2,200",33.70032,-84.424774,House for sale,35837404,15 days on Zillow,https://www.zillow.com/homedetails/1094-Regent-St-SW-Atlanta-GA-30310/35837404_zpid/,06-10-2022_18:57:36
1146 Ira St SW,Atlanta,GA,30310,"$3,249,900",4,3,"1,386",33.72366,-84.3998,House for sale,65441912,15 days on Zillow,https://www.zillow.com/homedetails/1146-Ira-St-SW-Atlanta-GA-30310/65441912_zpid/,06-10-2022_18:57:36
400 17th St NW UNIT 1223,Atlanta,GA,30363,"$350,000",3,2,"1,450",33.789207,-84.402084,Condo for sale,2077377967,15 days on Zillow,https://www.zillow.com/homedetails/400-17th-St-NW-UNIT-1223-Atlanta-GA-30363/2077377967_zpid/,06-10-2022_18:57:36
337 Enota Pl SW,Atlanta,GA,30310,"$310,000",3,2,971,33.746025,-84.43427,House for sale,35842475,"Price cut: $46,500 (May 26)",https://www.zillow.com/homedetails/337-Enota-Pl-SW-Atlanta-GA-30310/35842475_zpid/,06-10-2022_18:57:36
751 Piedmont Ave NE APT 12,Atlanta,GA,30308,"$519,000",2,3,922,33.775215,-84.38108,Townhouse for sale,2063136229,16 days on Zillow,https://www.zillow.com/homedetails/751-Piedmont-Ave-NE-APT-12-Atlanta-GA-30308/2063136229_zpid/,06-10-2022_18:57:36
136 Vanira Ave SE,Atlanta,GA,30315,"$600,000",4,3,"2,400",33.729645,-84.383545,House for sale,35882538,Open: Sun. 2-5pm,https://www.zillow.com/homedetails/136-Vanira-Ave-SE-Atlanta-GA-30315/35882538_zpid/,06-10-2022_18:57:36
211 Howell Dr SE #B,Atlanta,GA,30316,"$749,900",3,3,"1,819",,,New construction,2063152514,16 days on Zillow,https://www.zillow.com/homedetails/211-Howell-Dr-SE-B-Atlanta-GA-30316/2063152514_zpid/,06-10-2022_18:57:36
745 Fountainhead Ln NE UNIT 120,Atlanta,GA,30324,"$550,000",4,4,"2,540",33.81846,-84.36453,Townhouse for sale,2063092131,16 days on Zillow,https://www.zillow.com/homedetails/745-Fountainhead-Ln-NE-UNIT-120-Atlanta-GA-30324/2063092131_zpid/,06-10-2022_18:57:36
2660 Peachtree Rd NW APT 22H,Atlanta,GA,30305,"$1,649,000",3,3,"3,206",33.82747,-84.38817,Condo for sale,2067437154,"Price cut: $31,000 (May 25)",https://www.zillow.com/homedetails/2660-Peachtree-Rd-NW-APT-22H-Atlanta-GA-30305/2067437154_zpid/,06-10-2022_18:57:36
2970 Layton Ave NW,Atlanta,GA,30318,"$499,000",2,2,"1,368",33.809574,-84.48374,House for sale,35924007,16 days on Zillow,https://www.zillow.com/homedetails/2970-Layton-Ave-NW-Atlanta-GA-30318/35924007_zpid/,06-10-2022_18:57:36
3825 Vermont Rd NE,Atlanta,GA,30319,"$6,475,000",7,9,"9,455",33.85982,-84.355515,New construction,246521553,16 days on Zillow,https://www.zillow.com/homedetails/3825-Vermont-Rd-NE-Atlanta-GA-30319/246521553_zpid/,06-10-2022_18:57:36
1689 Derry Ave SW,Atlanta,GA,30310,"$569,999",4,4,"2,268",33.743748,-84.443016,House for sale,35846706,"Price cut: $30,001 (Jun 2)",https://www.zillow.com/homedetails/1689-Derry-Ave-SW-Atlanta-GA-30310/35846706_zpid/,06-10-2022_18:57:36
277 W Lake Ave NW,Atlanta,GA,30314,"$279,000",-,-,--,33.76222,-84.4408,Multi-family home for sale,35846372,18 days on Zillow,https://www.zillow.com/homedetails/277-W-Lake-Ave-NW-Atlanta-GA-30314/35846372_zpid/,06-10-2022_18:57:36
204 Camden Rd NE,Atlanta,GA,30309,"$1,599,000",4,4,"3,908",33.809307,-84.387314,House for sale,35897337,Play video iconVideo Walkthrough,https://www.zillow.com/homedetails/204-Camden-Rd-NE-Atlanta-GA-30309/35897337_zpid/,06-10-2022_18:57:36
858 Thurmond St NW,Atlanta,GA,30314,"$145,000",,,"4,095",33.760242,-84.41563,Lot / Land for sale,82631023,18 days on Zillow,https://www.zillow.com/homedetails/858-Thurmond-St-NW-Atlanta-GA-30314/82631023_zpid/,06-10-2022_18:57:36
1383 Summer Ln SE,Atlanta,GA,30316,"$585,000",4,4,"2,388",33.715816,-84.35191,House for sale,2063177213,Open: Fri. 9am-7pm,https://www.zillow.com/homedetails/1383-Summer-Ln-SE-Atlanta-GA-30316/2063177213_zpid/,06-10-2022_18:57:36
120 Ralph McGill Blvd NE APT 708,Atlanta,GA,30308,"$332,800",2,2,"1,532",33.76478,-84.38357,Condo for sale,2128978377,Open: Sun. 2-5pm,https://www.zillow.com/homedetails/120-Ralph-McGill-Blvd-NE-APT-708-Atlanta-GA-30308/2128978377_zpid/,06-10-2022_18:57:36
655 W Paces Ferry Rd NW,Atlanta,GA,30327,"$4,999,750",8,9,--,,,New construction,2076564473,18 days on Zillow,https://www.zillow.com/homedetails/655-W-Paces-Ferry-Rd-NW-Atlanta-GA-30327/2076564473_zpid/,06-10-2022_18:57:36
316-316A Logan St SE,Atlanta,GA,30312,"$449,900",2,3,"1,381",33.74464,-84.38328,Townhouse for sale,2075173691,Open: Sat. 12-2pm,https://www.zillow.com/homedetails/316-316A-Logan-St-SE-Atlanta-GA-30312/2075173691_zpid/,06-10-2022_18:57:36
2924 3rd Ave SW,Atlanta,GA,30315,"$160,000",3,1,900,33.67566,-84.40617,House for sale,35892460,18 days on Zillow,https://www.zillow.com/homedetails/2924-3rd-Ave-SW-Atlanta-GA-30315/35892460_zpid/,06-10-2022_18:57:36
130 Putnam Cir NE,Atlanta,GA,30342,"$775,000",3,2,"1,872",33.860153,-84.384186,House for sale,35942359,"Price cut: $5,000 (May 31)",https://www.zillow.com/homedetails/130-Putnam-Cir-NE-Atlanta-GA-30342/35942359_zpid/,06-10-2022_18:57:36
500 Brentwood Dr NE,Atlanta,GA,30305,"$1,650,000",3,3,"3,358",33.831833,-84.3712,House for sale,35933079,21 days on Zillow,https://www.zillow.com/homedetails/500-Brentwood-Dr-NE-Atlanta-GA-30305/35933079_zpid/,06-10-2022_18:57:36
3325 Piedmont Rd NE UNIT 2701,Atlanta,GA,30305,"$835,000",3,3,"2,023",33.845165,-84.37151,Condo for sale,2088491422,21 days on Zillow,https://www.zillow.com/homedetails/3325-Piedmont-Rd-NE-UNIT-2701-Atlanta-GA-30305/2088491422_zpid/,06-10-2022_18:57:36
1 01 Daleview Dr,Atlanta,GA,30315,"$486,000",3,3,"1,804",33.70402,-84.388306,New construction,2082979074,21 days on Zillow,https://www.zillow.com/homedetails/1-01-Daleview-Dr-Atlanta-GA-30315/2082979074_zpid/,06-10-2022_18:57:36
57 Moury Ave SE,Atlanta,GA,30315,"$449,000",3,3,"2,100",33.712868,-84.38551,New construction,2095352273,21 days on Zillow,https://www.zillow.com/homedetails/57-Moury-Ave-SE-Atlanta-GA-30315/2095352273_zpid/,06-10-2022_18:57:36
1054 N Virginia Ave NE,Atlanta,GA,30306,"$1,375,000",5,5,"3,561",33.783443,-84.34974,House for sale,35895657,21 days on Zillow,https://www.zillow.com/homedetails/1054-N-Virginia-Ave-NE-Atlanta-GA-30306/35895657_zpid/,06-10-2022_18:57:36
3636 Habersham Rd NW APT 2207,Atlanta,GA,30305,"$329,900",2,2,"1,178",33.85332,-84.384254,Condo for sale,2065480360,"Price cut: $10,000 (Jun 6)",https://www.zillow.com/homedetails/3636-Habersham-Rd-NW-APT-2207-Atlanta-GA-30305/2065480360_zpid/,06-10-2022_18:57:36
102 Brighton Rd NE,Atlanta,GA,30309,"$2,890,000",6,7,"5,159",33.809353,-84.389755,House for sale,35900155,21 days on Zillow,https://www.zillow.com/homedetails/102-Brighton-Rd-NE-Atlanta-GA-30309/35900155_zpid/,06-10-2022_18:57:36
915 Amsterdam Ave NE,Atlanta,GA,30306,"$699,900",2,2,"1,030",33.787292,-84.357124,House for sale,35895052,"Price cut: $20,000 (Jun 1)",https://www.zillow.com/homedetails/915-Amsterdam-Ave-NE-Atlanta-GA-30306/35895052_zpid/,06-10-2022_18:57:36
400 17th St NW UNIT 2219,Atlanta,GA,30363,"$315,000",2,2,"1,275",33.789207,-84.402084,Condo for sale,2066267106,21 days on Zillow,https://www.zillow.com/homedetails/400-17th-St-NW-UNIT-2219-Atlanta-GA-30363/2066267106_zpid/,06-10-2022_18:57:36
