address_street,city,state,zip_code,price,beds,baths,area_sq_ft,latitude,longitude,status_text,list_url,date_scraped,listing_id,listing_time
0 Daniel Boone Dr,Dripping Springs,TX,78620,"$599,000",,,,,,Active,https://www.zillow.com/homedetails/0-Daniel-Boone-Dr-Dripping-Springs-TX-78620/2066560676_zpid/,06-14-2022_12:28:11,2066560676,11 minutes ago
2211 Santa Rosa St,Austin,TX,78702,"$1,299,990",4,3,"2,075",30.258356,-97.71865,Active,https://www.zillow.com/homedetails/2211-Santa-Rosa-St-Austin-TX-78702/29383115_zpid/,06-14-2022_12:28:11,29383115,11 minutes ago
5752 Alsace Trl,Austin,TX,78724,"$420,000",3,2,"1,170",30.289698,-97.64636,Active,https://www.zillow.com/homedetails/5752-Alsace-Trl-Austin-TX-78724/64553214_zpid/,06-14-2022_12:28:11,64553214,26 minutes ago
1600 Barton Springs Rd UNIT 3601,Austin,TX,78704,"$1,275,000",3,2,"1,686",30.262539,-97.76191,Active,https://www.zillow.com/homedetails/1600-Barton-Springs-Rd-UNIT-3601-Austin-TX-78704/83124442_zpid/,06-14-2022_12:28:11,83124442,41 minutes ago
12166 Metric Blvd APT 172,Austin,TX,78758,"$349,000",2,2,"1,004",30.407125,-97.698135,Active,https://www.zillow.com/homedetails/12166-Metric-Blvd-APT-172-Austin-TX-78758/80099381_zpid/,06-14-2022_12:28:11,80099381,57 minutes ago
2600 Aftonshire Way #A,Austin,TX,78748,"$415,000",2,2,999,30.17849,-97.83373,Active,https://www.zillow.com/homedetails/2600-Aftonshire-Way-A-Austin-TX-78748/2062778080_zpid/,06-14-2022_12:28:11,2062778080,1 hour ago
2600 Aftonshire Way #B,Austin,TX,78748,"$425,000",2,2,947,30.17849,-97.83373,Active,https://www.zillow.com/homedetails/2600-Aftonshire-Way-B-Austin-TX-78748/2062778081_zpid/,06-14-2022_12:28:11,2062778081,1 hour ago
2906 Rio Grande St,Austin,TX,78705,"$1,695,000",2,3,"1,601",30.296528,-97.743835,Active,https://www.zillow.com/homedetails/2906-Rio-Grande-St-Austin-TX-78705/29398131_zpid/,06-14-2022_12:28:11,29398131,1 hour ago
7605 Barcelona Cv,Austin,TX,78752,"$415,000",2,2,"1,606",30.33012,-97.685326,Active,https://www.zillow.com/homedetails/7605-Barcelona-Cv-Austin-TX-78752/29413872_zpid/,06-14-2022_12:28:11,29413872,1 hour ago
2101 Wheless Ln,Austin,TX,78723,"$595,000",-,-,"1,440",30.312887,-97.686424,Active,https://www.zillow.com/homedetails/2101-Wheless-Ln-Austin-TX-78723/29407182_zpid/,06-14-2022_12:28:11,29407182,2 days on Zillow
1808 W 38th St,Austin,TX,78731,"$1,100,000",-,-,"1,950",30.311289,-97.7524,Active,https://www.zillow.com/homedetails/1808-W-38th-St-Austin-TX-78731/29340214_zpid/,06-14-2022_12:28:11,29340214,2 days on Zillow
1112 Cripple Creek Dr,Austin,TX,78758,"$576,000",3,2,"1,908",30.374626,-97.69984,Active,https://www.zillow.com/homedetails/1112-Cripple-Creek-Dr-Austin-TX-78758/29431471_zpid/,06-14-2022_12:28:11,29431471,2 days on Zillow
2115 Bluebonnet Ln APT 2A,Austin,TX,78704,"$895,000",3,3,"1,752",30.24982,-97.77513,Active,https://www.zillow.com/homedetails/2115-Bluebonnet-Ln-APT-2A-Austin-TX-78704/63838173_zpid/,06-14-2022_12:28:11,63838173,2 days on Zillow
8604 Barasinga Trl,Austin,TX,78749,"$675,000",4,2,"2,249",30.205044,-97.85862,Active,https://www.zillow.com/homedetails/8604-Barasinga-Trl-Austin-TX-78749/29496232_zpid/,06-14-2022_12:28:11,29496232,2 days on Zillow
11028 Furrow Hill Dr,Austin,TX,78754,"$595,000",4,2,"2,490",30.358213,-97.642105,Active,https://www.zillow.com/homedetails/11028-Furrow-Hill-Dr-Austin-TX-78754/70339092_zpid/,06-14-2022_12:28:11,70339092,2 days on Zillow
10105 Whitley Bay Dr,Austin,TX,78717,"$1,300,000",5,4,"4,345",30.504908,-97.76067,Active,https://www.zillow.com/homedetails/10105-Whitley-Bay-Dr-Austin-TX-78717/67004962_zpid/,06-14-2022_12:28:11,67004962,2 days on Zillow
6615 La Concha Pass,Austin,TX,78749,"$1,980,000",5,5,"4,458",30.229893,-97.87321,Active,https://www.zillow.com/homedetails/6615-La-Concha-Pass-Austin-TX-78749/29481555_zpid/,06-14-2022_12:28:11,29481555,2 days on Zillow
7915 Parliament Pl,Austin,TX,78759,"$430,500",3,3,"1,616",30.432407,-97.77201,Active,https://www.zillow.com/homedetails/7915-Parliament-Pl-Austin-TX-78759/29562079_zpid/,06-14-2022_12:28:11,29562079,Play video iconVideo Walkthrough
12805 Paloma Blanca Way,Del Valle,TX,78617,"$378,000",3,2,"1,425",30.16625,-97.62575,Active,https://www.zillow.com/homedetails/12805-Paloma-Blanca-Way-Del-Valle-TX-78617/70345935_zpid/,06-14-2022_12:28:11,70345935,3 days on Zillow
5402 Golden Canary Ln,Austin,TX,78723,"$695,000",4,3,"1,888",30.296318,-97.6723,Active,https://www.zillow.com/homedetails/5402-Golden-Canary-Ln-Austin-TX-78723/2086417175_zpid/,06-14-2022_12:28:11,2086417175,3 days on Zillow
1307 Kinney Ave APT 136,Austin,TX,78704,"$565,000",2,3,"1,101",30.25533,-97.7661,Active,https://www.zillow.com/homedetails/1307-Kinney-Ave-APT-136-Austin-TX-78704/29323881_zpid/,06-14-2022_12:28:11,29323881,3 days on Zillow
7912 Nashfara Cv,Austin,TX,78759,"$1,800,000",6,5,"4,150",30.42182,-97.779625,Active,https://www.zillow.com/homedetails/7912-Nashfara-Cv-Austin-TX-78759/241930200_zpid/,06-14-2022_12:28:11,241930200,3 days on Zillow
10425 Indigo Broom Loop,Austin,TX,78733,"$1,560,000",5,4,"3,265",30.310957,-97.89691,Active,https://www.zillow.com/homedetails/10425-Indigo-Broom-Loop-Austin-TX-78733/29339537_zpid/,06-14-2022_12:28:11,29339537,3 days on Zillow
Sonata Plan,,,51,"$623,855",3,2,"1,373",30.293154,-97.6706,New construction,https://www.zillow.com/community/park-at-51-east/2079152436_zpid/,06-14-2022_12:28:11,2079152436,Open: Mon:10AM-6PM;Tue:...
Cantata Plan,,,51,"$669,170",4,3,"2,160",30.293154,-97.6706,New construction,https://www.zillow.com/community/park-at-51-east/2079152442_zpid/,06-14-2022_12:28:11,2079152442,Open: Mon:10AM-6PM;Tue:...
8113 Silhouette St,Austin,TX,78744,"$783,000",4,3,"2,460",30.148123,-97.719345,Active,https://www.zillow.com/homedetails/8113-Silhouette-St-Austin-TX-78744/331625568_zpid/,06-14-2022_12:28:11,331625568,3 days on Zillow
Langston Plan,,,,"$508,192",2,2,"1,465",30.15542,-97.71682,New construction,https://www.zillow.com/community/urban-courtyard-homes-at-easton-park/2063264495_zpid/,06-14-2022_12:28:11,2063264495,Open: M: 12:00 PM-6:00 ...
3302 Thompson St #1,Austin,TX,78702,"$1,149,000",3,3,"2,035",,,Active,https://www.zillow.com/homedetails/3302-Thompson-St-1-Austin-TX-78702/2063179262_zpid/,06-14-2022_12:28:11,2063179262,3 days on Zillow
5101 Rob Scott St,Austin,TX,78721,"$250,000",,,"5,445",30.281275,-97.679344,Active,https://www.zillow.com/homedetails/5101-Rob-Scott-St-Austin-TX-78721/83827473_zpid/,06-14-2022_12:28:11,83827473,3 days on Zillow
222 West Ave #2413,Austin,TX,78701,"$1,075,000",2,2,"1,360",30.267336,-97.75183,Active,https://www.zillow.com/homedetails/222-West-Ave-2413-Austin-TX-78701/124841066_zpid/,06-14-2022_12:28:11,124841066,3 days on Zillow
712 W 21st St APT 203,Austin,TX,78705,"$363,000",2,2,906,30.28405,-97.745255,Active,https://www.zillow.com/homedetails/712-W-21st-St-APT-203-Austin-TX-78705/62605631_zpid/,06-14-2022_12:28:11,62605631,3 days on Zillow
The Stonewall Plan,,,,"$509,900",3,3,"1,848",30.138233,-97.76202,New construction,https://www.zillow.com/community/vistas-of-austin/2068405541_zpid/,06-14-2022_12:28:11,2068405541,Open: *CLOSED WEDNESDAY...
9100 Alex Ln,Austin,TX,78748,"$635,000",3,2,"1,950",30.170301,-97.79892,House for sale,https://www.zillow.com/homedetails/9100-Alex-Ln-Austin-TX-78748/251036501_zpid/,06-14-2022_12:28:11,251036501,3 days on Zillow
7501 Sevilla Dr,Austin,TX,78752,"$699,900",3,2,"2,051",30.328232,-97.68628,Active,https://www.zillow.com/homedetails/7501-Sevilla-Dr-Austin-TX-78752/29413843_zpid/,06-14-2022_12:28:11,29413843,3 days on Zillow
1201 Grove Blvd APT 502,Austin,TX,78741,"$466,000",2,2,993,30.234577,-97.704315,Active,https://www.zillow.com/homedetails/1201-Grove-Blvd-APT-502-Austin-TX-78741/70356032_zpid/,06-14-2022_12:28:11,70356032,3 days on Zillow
360 Nueces St APT 3304,Austin,TX,78701,"$949,000",2,2,998,30.267443,-97.749405,Active,https://www.zillow.com/homedetails/360-Nueces-St-APT-3304-Austin-TX-78701/89552437_zpid/,06-14-2022_12:28:11,89552437,3 days on Zillow
2006 Arthur Ln,Austin,TX,78704,"$2,695,000",3,3,"2,452",30.25371,-97.77911,Active,https://www.zillow.com/homedetails/2006-Arthur-Ln-Austin-TX-78704/29322731_zpid/,06-14-2022_12:28:11,29322731,Play video iconVideo Walkthrough
3511 Rivercrest Dr,Austin,TX,78746,"$2,795,000",4,4,"3,300",30.338114,-97.81438,Active,https://www.zillow.com/homedetails/3511-Rivercrest-Dr-Austin-TX-78746/29344815_zpid/,06-14-2022_12:28:11,29344815,3 days on Zillow
3310 Treadsoft Cv,Austin,TX,78748,"$799,900",3,2,"1,977",30.168053,-97.85706,Active,https://www.zillow.com/homedetails/3310-Treadsoft-Cv-Austin-TX-78748/29512288_zpid/,06-14-2022_12:28:11,29512288,3 days on Zillow
1813 Eagles Glen Cv,Austin,TX,78732,"$2,150,000",5,6,"4,780",30.35507,-97.89137,Active,https://www.zillow.com/homedetails/1813-Eagles-Glen-Cv-Austin-TX-78732/70337321_zpid/,06-14-2022_12:28:11,70337321,Play video iconVideo Walkthrough
5716 Painted Valley Dr,Austin,TX,78759,"$995,000",4,3,"2,400",30.40819,-97.759476,Active,https://www.zillow.com/homedetails/5716-Painted-Valley-Dr-Austin-TX-78759/29365048_zpid/,06-14-2022_12:28:11,29365048,3 days on Zillow
2718 Bobby Ln,Austin,TX,78745,"$679,000",3,2,"1,526",30.190521,-97.82876,Active,https://www.zillow.com/homedetails/2718-Bobby-Ln-Austin-TX-78745/29504144_zpid/,06-14-2022_12:28:11,29504144,3 days on Zillow
5204 Ridge Oak Dr,Austin,TX,78731,"$4,600,000",4,4,"5,502",30.335821,-97.76181,Active,https://www.zillow.com/homedetails/5204-Ridge-Oak-Dr-Austin-TX-78731/29344270_zpid/,06-14-2022_12:28:11,29344270,"Price cut: $400,000 (May 28)"
1801 Alta Vista Ave,Austin,TX,78704,"$2,475,000",-,-,"2,407",30.242903,-97.743286,Active,https://www.zillow.com/homedetails/1801-Alta-Vista-Ave-Austin-TX-78704/29460512_zpid/,06-14-2022_12:28:11,29460512,3 days on Zillow
5628 Emma Thompson Way,Austin,TX,78747,"$389,000",3,2,"1,220",30.141933,-97.768036,Active,https://www.zillow.com/homedetails/5628-Emma-Thompson-Way-Austin-TX-78747/111371162_zpid/,06-14-2022_12:28:11,111371162,3 days on Zillow
48 East Ave #3106,Austin,TX,78701,"$740,000",1,1,740,30.25641,-97.73887,Active,https://www.zillow.com/homedetails/48-East-Ave-3106-Austin-TX-78701/2074939553_zpid/,06-14-2022_12:28:11,2074939553,4 days on Zillow
1105 W Monroe St,Austin,TX,78704,"$2,850,000",4,3,"2,560",30.251785,-97.76153,Active,https://www.zillow.com/homedetails/1105-W-Monroe-St-Austin-TX-78704/29321871_zpid/,06-14-2022_12:28:11,29321871,4 days on Zillow
12501 Bright Sky Overlook,Austin,TX,78732,"$875,000",4,3,"2,870",30.353872,-97.90525,Active,https://www.zillow.com/homedetails/12501-Bright-Sky-Overlook-Austin-TX-78732/70333779_zpid/,06-14-2022_12:28:11,70333779,4 days on Zillow
4604 Peach Grove Rd,Austin,TX,78744,"$539,900",3,3,"2,308",30.1979,-97.72999,House for sale,https://www.zillow.com/homedetails/4604-Peach-Grove-Rd-Austin-TX-78744/70327439_zpid/,06-14-2022_12:28:11,70327439,4 days on Zillow
2103 Two Greenwood Ave #B,Austin,TX,78723,"$899,000",3,3,"1,978",,,Active,https://www.zillow.com/homedetails/2103-Two-Greenwood-Ave-B-Austin-TX-78723/2062914393_zpid/,06-14-2022_12:28:11,2062914393,4 days on Zillow
2113 Thornton Rd,Austin,TX,78704,"$1,100,000",1,2,"1,680",30.245491,-97.77035,Active,https://www.zillow.com/homedetails/2113-Thornton-Rd-Austin-TX-78704/29472799_zpid/,06-14-2022_12:28:11,29472799,4 days on Zillow
10400 Steinbeck Dr,Austin,TX,78747,"$546,840",4,2,"2,031",30.141474,-97.772766,Active,https://www.zillow.com/homedetails/10400-Steinbeck-Dr-Austin-TX-78747/305434337_zpid/,06-14-2022_12:28:11,305434337,Open: Mon-Sun: By Appoi...
4204 Ovalla Cv,Austin,TX,78749,"$675,000",3,2,"2,195",30.197456,-97.85364,Active,https://www.zillow.com/homedetails/4204-Ovalla-Cv-Austin-TX-78749/64577199_zpid/,06-14-2022_12:28:11,64577199,4 days on Zillow
12720 Rush Creek Ln,Austin,TX,78732,"$899,000",4,3,"3,263",30.354101,-97.907234,Active,https://www.zillow.com/homedetails/12720-Rush-Creek-Ln-Austin-TX-78732/83818635_zpid/,06-14-2022_12:28:11,83818635,4 days on Zillow
1903 Big Horn Dr,Austin,TX,78734,"$7,200,000",6,6,"5,413",30.3685,-97.91521,Active,https://www.zillow.com/homedetails/1903-Big-Horn-Dr-Austin-TX-78734/29354228_zpid/,06-14-2022_12:28:11,29354228,4 days on Zillow
2405 Stone River Dr,Austin,TX,78745,"$625,000",3,2,"1,701",30.194696,-97.818436,Active,https://www.zillow.com/homedetails/2405-Stone-River-Dr-Austin-TX-78745/144386288_zpid/,06-14-2022_12:28:11,144386288,4 days on Zillow
6612 Janes Ranch Rd,Austin,TX,78744,"$561,000",3,2,"1,989",30.171064,-97.72964,Active,https://www.zillow.com/homedetails/6612-Janes-Ranch-Rd-Austin-TX-78744/145658620_zpid/,06-14-2022_12:28:11,145658620,4 days on Zillow
3902 Willbert Rd,Austin,TX,78751,"$1,000,000",3,2,"2,021",30.296684,-97.72098,Active,https://www.zillow.com/homedetails/3902-Willbert-Rd-Austin-TX-78751/29398469_zpid/,06-14-2022_12:28:11,29398469,4 days on Zillow
12204 Long Bay Cv,Austin,TX,78732,"$900,000",4,3,"2,968",30.367762,-97.88791,Active,https://www.zillow.com/homedetails/12204-Long-Bay-Cv-Austin-TX-78732/83124915_zpid/,06-14-2022_12:28:11,83124915,4 days on Zillow
12308 Indian Mound Dr,Austin,TX,78758,"$699,000",4,2,"2,285",30.405025,-97.679726,Active,https://www.zillow.com/homedetails/12308-Indian-Mound-Dr-Austin-TX-78758/29438661_zpid/,06-14-2022_12:28:11,29438661,4 days on Zillow
The Casablanca Plan,,,,"$135,000",2,1,850,30.21221,-97.70791,New construction,https://www.zillow.com/community/titan-factory-direct-austin/2066390614_zpid/,06-14-2022_12:28:11,2066390614,Open: Monday - Saturday...
2214 S 3rd St #B,Austin,TX,78704,"$1,475,000",3,3,"1,420",30.244398,-97.76139,Active,https://www.zillow.com/homedetails/2214-S-3rd-St-B-Austin-TX-78704/2079143792_zpid/,06-14-2022_12:28:11,2079143792,4 days on Zillow
5820 Harper Park Dr UNIT 70,Austin,TX,78735,"$949,000",4,4,"2,937",30.238586,-97.85367,Active,https://www.zillow.com/homedetails/5820-Harper-Park-Dr-UNIT-70-Austin-TX-78735/251032288_zpid/,06-14-2022_12:28:11,251032288,4 days on Zillow
6700 Meadow Lake Blvd,Austin,TX,78744,"$425,000",3,2,"1,180",30.18039,-97.7509,Active,https://www.zillow.com/homedetails/6700-Meadow-Lake-Blvd-Austin-TX-78744/29505454_zpid/,06-14-2022_12:28:11,29505454,4 days on Zillow
1117 Algarita Ave,Austin,TX,78704,"$1,138,400",3,3,"1,423",30.237825,-97.74229,Active,https://www.zillow.com/homedetails/1117-Algarita-Ave-Austin-TX-78704/64796674_zpid/,06-14-2022_12:28:11,64796674,4 days on Zillow
2529 Rio Grande St APT 78,Austin,TX,78705,"$375,000",2,2,"1,055",30.290127,-97.744316,Active,https://www.zillow.com/homedetails/2529-Rio-Grande-St-APT-78-Austin-TX-78705/2127963073_zpid/,06-14-2022_12:28:11,2127963073,4 days on Zillow
1908 Quivira Rd,Austin,TX,78745,"$679,500",4,3,"3,147",30.191334,-97.81179,Active,https://www.zillow.com/homedetails/1908-Quivira-Rd-Austin-TX-78745/58315464_zpid/,06-14-2022_12:28:11,58315464,4 days on Zillow
4518 Best Way,Austin,TX,78725,"$349,000",3,2,"1,104",30.235905,-97.57161,Active,https://www.zillow.com/homedetails/4518-Best-Way-Austin-TX-78725/83829975_zpid/,06-14-2022_12:28:11,83829975,4 days on Zillow
1420 Berlin Ln,Austin,TX,78753,"$600,000",4,4,"2,466",30.395514,-97.64867,Active,https://www.zillow.com/homedetails/1420-Berlin-Ln-Austin-TX-78753/125891329_zpid/,06-14-2022_12:28:11,125891329,Open: Sat. 11am-3pm
12417 Knowell Dr,Austin,TX,78753,"$560,000",3,3,"2,403",30.392906,-97.64818,Active,https://www.zillow.com/homedetails/12417-Knowell-Dr-Austin-TX-78753/145550694_zpid/,06-14-2022_12:28:11,145550694,4 days on Zillow
123 Denise Cv,Austin,TX,78737,"$1,100,000",4,3,"3,153",30.166756,-97.93801,Active,https://www.zillow.com/homedetails/123-Denise-Cv-Austin-TX-78737/202161479_zpid/,06-14-2022_12:28:11,202161479,4 days on Zillow
1313 Cometa St #A,Austin,TX,78721,"$800,000",3,3,"1,683",30.279745,-97.68966,Active,https://www.zillow.com/homedetails/1313-Cometa-St-A-Austin-TX-78721/241931830_zpid/,06-14-2022_12:28:11,241931830,Play video iconVideo Walkthrough
609 W Mary St,Austin,TX,78704,"$1,700,000",3,4,"2,800",30.246508,-97.75729,Active,https://www.zillow.com/homedetails/609-W-Mary-St-Austin-TX-78704/29472728_zpid/,06-14-2022_12:28:11,29472728,4 days on Zillow
1800 E 4th St #343,Austin,TX,78702,"$425,000",1,1,512,30.260199,-97.72396,Active,https://www.zillow.com/homedetails/1800-E-4th-St-343-Austin-TX-78702/305426273_zpid/,06-14-2022_12:28:11,305426273,"Price cut: $10,000 (Jun 14)"
10716 Desert Willow Loop,Austin,TX,78748,"$500,000",3,2,"1,914",30.14739,-97.80457,Active,https://www.zillow.com/homedetails/10716-Desert-Willow-Loop-Austin-TX-78748/80094109_zpid/,06-14-2022_12:28:11,80094109,4 days on Zillow
2000 Maple Ave,Austin,TX,78722,"$675,000",3,2,"1,107",30.281677,-97.71674,Active,https://www.zillow.com/homedetails/2000-Maple-Ave-Austin-TX-78722/29392107_zpid/,06-14-2022_12:28:11,29392107,4 days on Zillow
3100 Menchaca Rd #9,Austin,TX,78704,"$1,020,000",3,4,"1,977",30.241463,-97.78236,Active,https://www.zillow.com/homedetails/3100-Menchaca-Rd-9-Austin-TX-78704/241938502_zpid/,06-14-2022_12:28:11,241938502,4 days on Zillow
1311 Southport Dr APT B,Austin,TX,78704,"$375,000",2,2,924,30.23278,-97.77566,Active,https://www.zillow.com/homedetails/1311-Southport-Dr-APT-B-Austin-TX-78704/331626903_zpid/,06-14-2022_12:28:11,331626903,4 days on Zillow
10208 Fossmoor St,Austin,TX,78717,"$990,000",4,3,"3,374",30.499786,-97.77124,Active,https://www.zillow.com/homedetails/10208-Fossmoor-St-Austin-TX-78717/67003940_zpid/,06-14-2022_12:28:11,67003940,4 days on Zillow
3120 Flinders Reef Ln,Austin,TX,78728,"$550,000",3,2,"2,161",30.452375,-97.68612,Active,https://www.zillow.com/homedetails/3120-Flinders-Reef-Ln-Austin-TX-78728/29451260_zpid/,06-14-2022_12:28:11,29451260,4 days on Zillow
324 Emerald Ridge Dr,Austin,TX,78732,"$1,795,000",5,4,"4,134",30.340693,-97.90891,Active,https://www.zillow.com/homedetails/324-Emerald-Ridge-Dr-Austin-TX-78732/89668846_zpid/,06-14-2022_12:28:11,89668846,4 days on Zillow
Hewitt Plan,,,,"$532,990",3,2,"1,689",30.306007,-97.657845,New construction,https://www.zillow.com/community/east-parke/2068622156_zpid/,06-14-2022_12:28:11,2068622156,Open: M:10AM-6PM;Tu:10A...
15020 Harkness Pass,Austin,TX,78725,"$425,000",4,2,"1,698",30.228622,-97.58522,Active,https://www.zillow.com/homedetails/15020-Harkness-Pass-Austin-TX-78725/331621809_zpid/,06-14-2022_12:28:11,331621809,5 days on Zillow
Dunwell Plan,,,,"$355,990",3,3,"1,392",30.1572,-97.6386,New construction,https://www.zillow.com/community/stoney-ridge/2070052616_zpid/,06-14-2022_12:28:11,2070052616,Open: Mon-Sun: By Appoi...
8313 Turning Trl,Austin,TX,78737,"$865,000",4,3,"2,975",30.231907,-97.90934,Active,https://www.zillow.com/homedetails/8313-Turning-Trl-Austin-TX-78737/121658862_zpid/,06-14-2022_12:28:11,121658862,5 days on Zillow
4209 Berkman Dr,Austin,TX,78723,"$1,190,000",3,3,"2,584",30.29476,-97.699814,Active,https://www.zillow.com/homedetails/4209-Berkman-Dr-Austin-TX-78723/145658958_zpid/,06-14-2022_12:28:11,145658958,5 days on Zillow
4505 Sidereal Dr,Austin,TX,78727,"$675,000",4,3,"2,343",30.426334,-97.72124,Active,https://www.zillow.com/homedetails/4505-Sidereal-Dr-Austin-TX-78727/29444375_zpid/,06-14-2022_12:28:11,29444375,5 days on Zillow
54 Rainey St APT 621,Austin,TX,78701,"$839,000",2,2,"1,164",30.25776,-97.739334,Active,https://www.zillow.com/homedetails/54-Rainey-St-APT-621-Austin-TX-78701/70348366_zpid/,06-14-2022_12:28:11,70348366,5 days on Zillow
8942 Wimberly Cv,Austin,TX,78735,"$3,400,000",3,3,"2,878",30.296354,-97.87155,Active,https://www.zillow.com/homedetails/8942-Wimberly-Cv-Austin-TX-78735/114404908_zpid/,06-14-2022_12:28:11,114404908,5 days on Zillow
12528 Reserve Creek Dr,Austin,TX,78748,"$750,000",3,3,"2,154",30.150322,-97.85739,Active,https://www.zillow.com/homedetails/12528-Reserve-Creek-Dr-Austin-TX-78748/119630569_zpid/,06-14-2022_12:28:11,119630569,5 days on Zillow
8110 Ranch Road 2222 APT 90,Austin,TX,78730,"$665,000",2,3,"1,313",30.378838,-97.805626,Active,https://www.zillow.com/homedetails/8110-Ranch-Road-2222-APT-90-Austin-TX-78730/251032879_zpid/,06-14-2022_12:28:11,251032879,"Price cut: $45,000 (Jun 14)"
McKinney Plan,,,,"$862,990",3,3,"2,223",30.294,-97.7069,New construction,https://www.zillow.com/community/mueller-courtyard-row/2072934645_zpid/,06-14-2022_12:28:11,2072934645,Open: Mon 10-6 ; Tue 10...
2450 Ashdale Dr APT 202,Austin,TX,78757,"$240,000",1,1,600,30.360043,-97.73283,Active,https://www.zillow.com/homedetails/2450-Ashdale-Dr-APT-202-Austin-TX-78757/2137312986_zpid/,06-14-2022_12:28:11,2137312986,5 days on Zillow
3102 Hemphill Park,Austin,TX,78705,"$1,600,000",3,3,"2,479",30.297318,-97.739494,Active,https://www.zillow.com/homedetails/3102-Hemphill-Park-Austin-TX-78705/29397263_zpid/,06-14-2022_12:28:11,29397263,5 days on Zillow
13427 Athens Trl,Austin,TX,78729,"$659,900",3,3,"1,664",30.456684,-97.75563,Active,https://www.zillow.com/homedetails/13427-Athens-Trl-Austin-TX-78729/29595471_zpid/,06-14-2022_12:28:11,29595471,5 days on Zillow
70 Rainey St #2704,Austin,TX,78701,"$2,975,000",2,3,"1,743",30.258486,-97.739174,Active,https://www.zillow.com/homedetails/70-Rainey-St-2704-Austin-TX-78701/306645077_zpid/,06-14-2022_12:28:11,306645077,5 days on Zillow
6909 Twilight Mesa Dr,Austin,TX,78737,"$1,450,000",4,4,"4,099",30.223862,-97.88124,Active,https://www.zillow.com/homedetails/6909-Twilight-Mesa-Dr-Austin-TX-78737/64891208_zpid/,06-14-2022_12:28:11,64891208,5 days on Zillow
12112 Bryony Dr,Austin,TX,78739,"$699,900",3,3,"2,146",30.186363,-97.923454,Active,https://www.zillow.com/homedetails/12112-Bryony-Dr-Austin-TX-78739/83816308_zpid/,06-14-2022_12:28:11,83816308,5 days on Zillow
5409 Dimesky Ln,Austin,TX,78723,"$653,755",3,3,"1,921",30.292465,-97.67042,Active,https://www.zillow.com/homedetails/5409-Dimesky-Ln-Austin-TX-78723/2063026917_zpid/,06-14-2022_12:28:11,2063026917,Open: Mon:10AM-6PM;Tue:...
5302 Northdale Dr,Austin,TX,78723,"$699,000",3,3,"2,070",30.290627,-97.67228,Active,https://www.zillow.com/homedetails/5302-Northdale-Dr-Austin-TX-78723/29395127_zpid/,06-14-2022_12:28:11,29395127,6 days on Zillow
1144 Mason Ave,Austin,TX,78721,"$649,999",3,1,888,30.275805,-97.68455,Active,https://www.zillow.com/homedetails/1144-Mason-Ave-Austin-TX-78721/29388850_zpid/,06-14-2022_12:28:11,29388850,6 days on Zillow
1404 Ridgehaven Dr,Austin,TX,78723,"$762,678",4,2,"1,777",30.31392,-97.698944,Active,https://www.zillow.com/homedetails/1404-Ridgehaven-Dr-Austin-TX-78723/29406921_zpid/,06-14-2022_12:28:11,29406921,3D Homes Icon3D Tour
707 E Live Oak St UNIT 1,Austin,TX,78704,"$1,800,000",4,4,"2,230",30.239084,-97.74693,Active,https://www.zillow.com/homedetails/707-E-Live-Oak-St-UNIT-1-Austin-TX-78704/2078728315_zpid/,06-14-2022_12:28:11,2078728315,6 days on Zillow
204 Honey Bee Ln,Austin,TX,78737,"$1,100,000",5,4,"3,599",30.167841,-97.998505,Active,https://www.zillow.com/homedetails/204-Honey-Bee-Ln-Austin-TX-78737/119622361_zpid/,06-14-2022_12:28:11,119622361,6 days on Zillow
Oakwood Plan,,,,"$493,764",3,2,"1,410",30.17018,-97.69681,New construction,https://www.zillow.com/community/addison-south-neighborhood-at-addison/2067643630_zpid/,06-14-2022_12:28:11,2067643630,Open: M: 12:00 PM-6:00 ...
Plan 212 Plan,,,75,"$914,990",4,3,"2,603",30.155323,-97.978096,New construction,https://www.zillow.com/community/parten-75ft-lots/2079036311_zpid/,06-14-2022_12:28:11,2079036311,Open: M: 10:00 AM-6:00 ...
The Rosemont II Plan,,,,"$513,990",5,3,"2,733",30.40968,-97.64343,New construction,https://www.zillow.com/community/hillcrest/2064193083_zpid/,06-14-2022_12:28:11,2064193083,Open: Daily Closed
718 Dulwich St,Austin,TX,78748,"$465,000",3,2,"1,076",30.181309,-97.800224,Active,https://www.zillow.com/homedetails/718-Dulwich-St-Austin-TX-78748/29503603_zpid/,06-14-2022_12:28:11,29503603,6 days on Zillow
Garnet Plan,,,60,"$680,990",4,3,"2,704",30.155512,-97.71668,New construction,https://www.zillow.com/community/easton-park-60s/2078410266_zpid/,06-14-2022_12:28:11,2078410266,Open: Mon-Sun:Appointme...
8601 Cumbria Ln,Austin,TX,78727,"$493,764",3,2,"1,413",30.42337,-97.7233,Active,https://www.zillow.com/homedetails/8601-Cumbria-Ln-Austin-TX-78727/337145540_zpid/,06-14-2022_12:28:11,337145540,Open: M: 12:00 PM-6:00 ...
2705 Deeringhill Dr,Austin,TX,78745,"$525,000",3,2,"1,363",30.203926,-97.81806,Active,https://www.zillow.com/homedetails/2705-Deeringhill-Dr-Austin-TX-78745/29488766_zpid/,06-14-2022_12:28:11,29488766,7 days on Zillow
The Callaghan (830) Plan,,,,"$520,990",4,2,"1,688",30.14125,-97.827065,New construction,https://www.zillow.com/community/copperstone/2069656962_zpid/,06-14-2022_12:28:11,2069656962,Open: M: 2:00 PM-6:00 P...
7608 Boyd Ln,Austin,TX,78732,"$924,900",4,3,"2,729",,,Active,https://www.zillow.com/homedetails/7608-Boyd-Ln-Austin-TX-78732/2062957181_zpid/,06-14-2022_12:28:11,2062957181,7 days on Zillow
218 Limestone Trl,Austin,TX,78737,"$600,000",3,2,"1,920",30.210546,-97.97793,Active,https://www.zillow.com/homedetails/218-Limestone-Trl-Austin-TX-78737/84077010_zpid/,06-14-2022_12:28:11,84077010,"Price cut: $25,000 (May 20)"
The Harper (S101) Plan,,,,"$441,990",2,3,"1,495",30.155485,-97.716225,New construction,https://www.zillow.com/community/easton-park/2080028663_zpid/,06-14-2022_12:28:11,2080028663,Open: M: 2:00 PM-6:00 P...
13111 New Boston Bnd,Austin,TX,78729,"$600,000",3,3,"2,276",30.44427,-97.745766,Active,https://www.zillow.com/homedetails/13111-New-Boston-Bnd-Austin-TX-78729/29377125_zpid/,06-14-2022_12:28:11,29377125,7 days on Zillow
10217 Bankhead Dr,Austin,TX,78747,"$455,000",3,2,"1,693",30.138573,-97.76226,Active,https://www.zillow.com/homedetails/10217-Bankhead-Dr-Austin-TX-78747/251035598_zpid/,06-14-2022_12:28:11,251035598,Play video iconVideo Walkthrough
5202 Mulberry Grove Ln,Austin,TX,78723,"$731,025",4,3,"1,931",30.294664,-97.67599,Active,https://www.zillow.com/homedetails/5202-Mulberry-Grove-Ln-Austin-TX-78723/2063214327_zpid/,06-14-2022_12:28:11,2063214327,Open: Fri:10AM-6PM;Mon:...
4905 Plum Peach Bnd,Austin,TX,78723,"$725,725",4,3,"1,931",30.294827,-97.67417,Active,https://www.zillow.com/homedetails/4905-Plum-Peach-Bnd-Austin-TX-78723/2063222087_zpid/,06-14-2022_12:28:11,2063222087,Open: Fri:10AM-6PM;Mon:...
5208 Evans Ave #2,Austin,TX,78751,"$745,000",2,3,"1,098",30.315676,-97.718124,Active,https://www.zillow.com/homedetails/5208-Evans-Ave-2-Austin-TX-78751/2069116527_zpid/,06-14-2022_12:28:11,2069116527,7 days on Zillow
Pioneer II Plan,,,,"$542,990",3,2,"1,519",30.35837,-97.64956,New construction,https://www.zillow.com/community/pioneer-crossing-east/2071246108_zpid/,06-14-2022_12:28:11,2071246108,Open: Daily Closed
(undisclosed Address),Austin,TX,78741,"$615,000",-,-,"1,855",,,Active,https://www.zillow.com/homedetails/Austin-TX-78741/29465401_zpid/,06-14-2022_12:28:11,29465401,"Price cut: $20,000 (Jun 11)"
4305 Banister Ln,Austin,TX,78745,"$685,000",3,2,"1,914",30.22661,-97.77982,Active,https://www.zillow.com/homedetails/4305-Banister-Ln-Austin-TX-78745/29478814_zpid/,06-14-2022_12:28:11,29478814,7 days on Zillow
809 Newman Dr,Austin,TX,78703,"$1,350,000",3,2,"1,574",30.284678,-97.77499,Active,https://www.zillow.com/homedetails/809-Newman-Dr-Austin-TX-78703/29330146_zpid/,06-14-2022_12:28:11,29330146,8 days on Zillow
10213 Cassandra Dr,Austin,TX,78717,"$725,000",4,3,"2,593",30.49274,-97.77199,Active,https://www.zillow.com/homedetails/10213-Cassandra-Dr-Austin-TX-78717/29603357_zpid/,06-14-2022_12:28:11,29603357,"Price cut: $40,000 (Jun 14)"
10518 Signal Hill Rd,Austin,TX,78737,"$1,525,000",3,2,"1,836",30.188074,-97.95856,Active,https://www.zillow.com/homedetails/10518-Signal-Hill-Rd-Austin-TX-78737/28602899_zpid/,06-14-2022_12:28:11,28602899,8 days on Zillow
10608 Glass Mountain Trl,Austin,TX,78750,"$1,150,000",5,4,"3,650",30.442268,-97.81368,Active,https://www.zillow.com/homedetails/10608-Glass-Mountain-Trl-Austin-TX-78750/29376230_zpid/,06-14-2022_12:28:11,29376230,"Price cut: $100,000 (Jun 10)"
7920 Rockwood Ln APT 224,Austin,TX,78757,"$322,900",2,2,992,30.360249,-97.73812,Active,https://www.zillow.com/homedetails/7920-Rockwood-Ln-APT-224-Austin-TX-78757/29426217_zpid/,06-14-2022_12:28:11,29426217,10 days on Zillow
2509 Pearl St APT 6,Austin,TX,78705,"$319,900",2,2,845,30.290092,-97.74642,Active,https://www.zillow.com/homedetails/2509-Pearl-St-APT-6-Austin-TX-78705/62576612_zpid/,06-14-2022_12:28:11,62576612,10 days on Zillow
4805 Woodview Ave,Austin,TX,78756,"$998,000",3,3,"1,664",30.321068,-97.7434,Active,https://www.zillow.com/homedetails/4805-Woodview-Ave-Austin-TX-78756/29409126_zpid/,06-14-2022_12:28:11,29409126,Play video iconVideo Walkthrough
4105 Canyon Glen Cir,Austin,TX,78732,"$850,000",4,3,"2,734",30.380358,-97.8879,Active,https://www.zillow.com/homedetails/4105-Canyon-Glen-Cir-Austin-TX-78732/29361454_zpid/,06-14-2022_12:28:11,29361454,10 days on Zillow
5806 Vasey,Austin,TX,78724,"$449,000",3,2,"1,704",30.25701,-97.57957,Active,https://www.zillow.com/homedetails/5806-Vasey-Austin-TX-78724/70344562_zpid/,06-14-2022_12:28:11,70344562,10 days on Zillow
1182 Oakgrove Ave #A,Austin,TX,78702,"$1,349,900",3,4,"2,889",30.275032,-97.70362,Active,https://www.zillow.com/homedetails/1182-Oakgrove-Ave-A-Austin-TX-78702/2062987050_zpid/,06-14-2022_12:28:11,2062987050,10 days on Zillow
4605 Rockcliff Rd,Austin,TX,78746,"$2,500,000",3,2,"1,344",30.340714,-97.790375,Active,https://www.zillow.com/homedetails/4605-Rockcliff-Rd-Austin-TX-78746/29346492_zpid/,06-14-2022_12:28:11,29346492,10 days on Zillow
2002 Belford Dr,Austin,TX,78757,"$750,000",4,2,"1,561",30.356062,-97.726456,Active,https://www.zillow.com/homedetails/2002-Belford-Dr-Austin-TX-78757/29422433_zpid/,06-14-2022_12:28:11,29422433,10 days on Zillow
1109 Winnie Dr,Austin,TX,78748,"$631,690",5,4,"2,530",30.159765,-97.818596,Active,https://www.zillow.com/homedetails/1109-Winnie-Dr-Austin-TX-78748/331630186_zpid/,06-14-2022_12:28:11,331630186,10 days on Zillow
10208 Cassandra Dr,Austin,TX,78717,"$719,900",4,3,"2,773",30.493292,-97.77176,Active,https://www.zillow.com/homedetails/10208-Cassandra-Dr-Austin-TX-78717/29603389_zpid/,06-14-2022_12:28:11,29603389,"Price cut: $24,100 (Jun 10)"
3708 Whitt Loop,Austin,TX,78749,"$750,000",4,3,"2,587",30.179445,-97.8573,Active,https://www.zillow.com/homedetails/3708-Whitt-Loop-Austin-TX-78749/29510518_zpid/,06-14-2022_12:28:11,29510518,10 days on Zillow
1008 Lakewood Hills Ter,Austin,TX,78732,"$1,995,000",4,4,"4,801",30.356226,-97.9117,Active,https://www.zillow.com/homedetails/1008-Lakewood-Hills-Ter-Austin-TX-78732/70352461_zpid/,06-14-2022_12:28:11,70352461,10 days on Zillow
5107 Lansing Dr,Austin,TX,78745,"$625,000",3,1,"1,252",30.216913,-97.785164,Active,https://www.zillow.com/homedetails/5107-Lansing-Dr-Austin-TX-78745/29482773_zpid/,06-14-2022_12:28:11,29482773,10 days on Zillow
3501 Socorro Trl,Austin,TX,78739,"$750,000",4,3,"2,221",30.163809,-97.863655,Active,https://www.zillow.com/homedetails/3501-Socorro-Trl-Austin-TX-78739/29513667_zpid/,06-14-2022_12:28:11,29513667,10 days on Zillow
11801 Eagles Glen Dr,Austin,TX,78732,"$1,995,000",4,4,"4,110",30.355099,-97.889534,Active,https://www.zillow.com/homedetails/11801-Eagles-Glen-Dr-Austin-TX-78732/69815832_zpid/,06-14-2022_12:28:11,69815832,10 days on Zillow
12505 Palfrey Dr,Austin,TX,78727,"$899,000",4,3,"2,637",30.422718,-97.70641,Active,https://www.zillow.com/homedetails/12505-Palfrey-Dr-Austin-TX-78727/70339555_zpid/,06-14-2022_12:28:11,70339555,10 days on Zillow
7685 Northcross Dr UNIT 109,Austin,TX,78757,"$260,000",1,1,576,30.354708,-97.735306,Active,https://www.zillow.com/homedetails/7685-Northcross-Dr-UNIT-109-Austin-TX-78757/121657913_zpid/,06-14-2022_12:28:11,121657913,10 days on Zillow
10301 Chestnut Ridge Rd,Austin,TX,78726,"$1,200,000",5,4,"3,662",30.433357,-97.81996,Active,https://www.zillow.com/homedetails/10301-Chestnut-Ridge-Rd-Austin-TX-78726/70330630_zpid/,06-14-2022_12:28:11,70330630,11 days on Zillow
10605 Marbury Ct,Austin,TX,78726,"$798,500",5,4,"2,877",30.441124,-97.826256,Active,https://www.zillow.com/homedetails/10605-Marbury-Ct-Austin-TX-78726/29376440_zpid/,06-14-2022_12:28:11,29376440,"Price cut: $39,000 (Jun 5)"
12812 Steeple Chase Dr,Austin,TX,78729,"$550,000",3,3,"1,592",30.44689,-97.76206,Active,https://www.zillow.com/homedetails/12812-Steeple-Chase-Dr-Austin-TX-78729/29547358_zpid/,06-14-2022_12:28:11,29547358,11 days on Zillow
10305 Stubble Quail Cir,Austin,TX,78758,"$570,000",4,2,"1,352",30.379343,-97.70611,Active,https://www.zillow.com/homedetails/10305-Stubble-Quail-Cir-Austin-TX-78758/29432921_zpid/,06-14-2022_12:28:11,29432921,11 days on Zillow
801 N Bluff Dr UNIT 20,Austin,TX,78745,"$729,987",3,3,"1,714",30.192139,-97.77168,Active,https://www.zillow.com/homedetails/801-N-Bluff-Dr-UNIT-20-Austin-TX-78745/305429532_zpid/,06-14-2022_12:28:11,305429532,11 days on Zillow
2504 Lynnbrook Dr,Austin,TX,78748,"$549,900",3,3,"2,190",30.16722,-97.836975,Active,https://www.zillow.com/homedetails/2504-Lynnbrook-Dr-Austin-TX-78748/60138920_zpid/,06-14-2022_12:28:11,60138920,"Price cut: $40,000 (Jun 13)"
5901 Bolm Rd #C,Austin,TX,78721,"$618,500",2,3,"1,388",30.25623,-97.68651,Active,https://www.zillow.com/homedetails/5901-Bolm-Rd-C-Austin-TX-78721/145654729_zpid/,06-14-2022_12:28:11,145654729,"Price cut: $10,000 (Jun 10)"
7128 Bending Oak Rd,Austin,TX,78749,"$899,000",4,3,"3,134",30.228619,-97.87002,Active,https://www.zillow.com/homedetails/7128-Bending-Oak-Rd-Austin-TX-78749/29481292_zpid/,06-14-2022_12:28:11,29481292,"Price cut: $50,000 (Jun 6)"
4726 Twin Valley Dr,Austin,TX,78731,"$1,395,000",3,5,"3,406",30.351372,-97.781746,Active,https://www.zillow.com/homedetails/4726-Twin-Valley-Dr-Austin-TX-78731/29349565_zpid/,06-14-2022_12:28:11,29349565,Play video iconVideo Walkthrough
