address_street,city,state,zip_code,price,beds,baths,area_sq_ft,latitude,longitude,status_text,listing_id,list_url,date_scraped
40 Temple St,Boston,MA,02114,"$949,000",3,3,"2,160",42.36017,-71.06345,House for sale,59180421,https://www.zillow.com/homedetails/40-Temple-St-Boston-MA-02114/59180421_zpid/,06-10-2022_19:28:53
32-32-32A Tremont St,Charlestown,MA,02129,"$1,299,900",6,3,"2,981",42.37641,-71.05881,Multi-family home for sale,2062907041,https://www.zillow.com/homedetails/32-32-32A-Tremont-St-Charlestown-MA-02129/2062907041_zpid/,06-10-2022_19:28:53
92 Beacon St APT 53,Boston,MA,02108,"$1,250,000",2,2,"1,137",42.355713,-71.07208,Condo for sale,59172489,https://www.zillow.com/homedetails/92-Beacon-St-APT-53-Boston-MA-02108/59172489_zpid/,06-10-2022_19:28:53
410 W Broadway UNIT 201,Boston,MA,02127,"$1,075,000",3,2,"1,215",42.345135,-71.06052,Condo for sale,2083913626,https://www.zillow.com/homedetails/410-W-Broadway-UNIT-201-Boston-MA-02127/2083913626_zpid/,06-10-2022_19:28:53
161 Cottage St #7,Boston,MA,02128,"$489,999",1,1,640,42.369846,-71.03266,Condo for sale,2062908625,https://www.zillow.com/homedetails/161-Cottage-St-7-Boston-MA-02128/2062908625_zpid/,06-10-2022_19:28:53
273 Gallivan Blvd #4,Dorchester Center,MA,02124,"$769,900",3,2,"1,544",42.27947,-71.06676,Condo for sale,2062910012,https://www.zillow.com/homedetails/273-Gallivan-Blvd-4-Dorchester-Center-MA-02124/2062910012_zpid/,06-10-2022_19:28:53
1 Franklin St UNIT 1408,Boston,MA,02110,"$2,050,000",2,2,"1,556",42.356316,-71.059555,Condo for sale,246886540,https://www.zillow.com/homedetails/1-Franklin-St-UNIT-1408-Boston-MA-02110/246886540_zpid/,06-10-2022_19:28:53
96 Waltham St #1,Boston,MA,02118,"$1,480,000",1,2,"1,731",42.343475,-71.07126,Townhouse for sale,2078714003,https://www.zillow.com/homedetails/96-Waltham-St-1-Boston-MA-02118/2078714003_zpid/,06-10-2022_19:28:53
67 Aldrich St,Roslindale,MA,02131,"$695,000",3,2,"1,704",42.284412,-71.141556,House for sale,59143382,https://www.zillow.com/homedetails/67-Aldrich-St-Roslindale-MA-02131/59143382_zpid/,06-10-2022_19:28:53
9 W Broadway UNIT 614,Boston,MA,02127,"$2,350,000",4,4,"2,603",42.34234,-71.05787,Condo for sale,2120606126,https://www.zillow.com/homedetails/9-W-Broadway-UNIT-614-Boston-MA-02127/2120606126_zpid/,06-10-2022_19:28:53
18 Regan Rd,Dorchester,MA,02124,"$789,900",3,2,"1,684",42.281635,-71.06763,House for sale,59116148,https://www.zillow.com/homedetails/18-Regan-Rd-Dorchester-MA-02124/59116148_zpid/,06-10-2022_19:28:53
464 Shawmut Ave #2,Boston,MA,02118,"$649,000",1,1,535,42.338757,-71.07556,Townhouse for sale,59211022,https://www.zillow.com/homedetails/464-Shawmut-Ave-2-Boston-MA-02118/59211022_zpid/,06-10-2022_19:28:53
68 Homes Single,Dorchester,MA,02122,"$669,900",3,3,"1,350",,,Condo for sale,2062922119,https://www.zillow.com/homedetails/68-Homes-Single-Dorchester-MA-02122/2062922119_zpid/,06-10-2022_19:28:53
68 Homes Ave,Boston,MA,02122,"$669,900",3,3,"1,350",42.302643,-71.071075,House for sale,59107574,https://www.zillow.com/homedetails/68-Homes-Ave-Boston-MA-02122/59107574_zpid/,06-10-2022_19:28:53
409 Commonwealth Ave #B,Boston,MA,02215,"$7,500,000",4,5,"4,600",,,Condo for sale,2063629706,https://www.zillow.com/homedetails/409-Commonwealth-Ave-B-Boston-MA-02215/2063629706_zpid/,06-10-2022_19:28:53
201 W Springfield St #3,Boston,MA,02118,"$999,000",1,2,"1,052",42.340336,-71.0801,Townhouse for sale,59183050,https://www.zillow.com/homedetails/201-W-Springfield-St-3-Boston-MA-02118/59183050_zpid/,06-10-2022_19:28:53
7 Cummings Rd APT 7,Brighton,MA,02135,"$649,000",2,2,985,42.340645,-71.14296,Condo for sale,2089651862,https://www.zillow.com/homedetails/7-Cummings-Rd-APT-7-Brighton-MA-02135/2089651862_zpid/,06-10-2022_19:28:53
119 Saint Botolph St #1,Boston,MA,02115,"$2,850,000",3,4,"2,228",42.3444,-71.08177,Condo for sale,2094601132,https://www.zillow.com/homedetails/119-Saint-Botolph-St-1-Boston-MA-02115/2094601132_zpid/,06-10-2022_19:28:53
240 Marlborough St APT 3B,Boston,MA,02116,"$680,000",1,1,529,42.351772,-71.08179,Condo for sale,59170340,https://www.zillow.com/homedetails/240-Marlborough-St-APT-3B-Boston-MA-02116/59170340_zpid/,06-10-2022_19:28:53
180 Commonwealth Ave APT 14,Boston,MA,02116,"$1,299,000",2,2,"1,035",42.351093,-71.07954,Condo for sale,59176661,https://www.zillow.com/homedetails/180-Commonwealth-Ave-APT-14-Boston-MA-02116/59176661_zpid/,06-10-2022_19:28:53
877 Harrison Ave APT 2,Roxbury,MA,02118,"$899,000",3,2,"1,600",42.33434,-71.07621,Condo for sale,63710221,https://www.zillow.com/homedetails/877-Harrison-Ave-APT-2-Roxbury-MA-02118/63710221_zpid/,06-10-2022_19:28:53
3 Constance Rd,West Roxbury,MA,02132,"$828,000",4,4,"2,503",42.276165,-71.16529,House for sale,63041836,https://www.zillow.com/homedetails/3-Constance-Rd-West-Roxbury-MA-02132/63041836_zpid/,06-10-2022_19:28:53
44-46 Kirkwood Rd,Brighton,MA,02135,"$2,100,000",1,5,"4,243",42.341305,-71.15675,Multi-family home for sale,189928530,https://www.zillow.com/homedetails/44-46-Kirkwood-Rd-Brighton-MA-02135/189928530_zpid/,06-10-2022_19:28:53
16 National St,South Boston,MA,02127,"$799,999",4,2,"1,637",42.333904,-71.04655,House for sale,59149746,https://www.zillow.com/homedetails/16-National-St-South-Boston-MA-02127/59149746_zpid/,06-10-2022_19:28:53
197 8th St APT 617,Charlestown,MA,02129,"$1,574,900",2,2,"1,714",42.373383,-71.05198,Condo for sale,59098552,https://www.zillow.com/homedetails/197-8th-St-APT-617-Charlestown-MA-02129/59098552_zpid/,06-10-2022_19:28:53
8 Banton St,Dorchester Center,MA,02124,"$14,950,000",6,5,"38,442",,,Multi-family home for sale,2067463509,https://www.zillow.com/homedetails/8-Banton-St-Dorchester-Center-MA-02124/2067463509_zpid/,06-10-2022_19:28:53
135 Everett St,East Boston,MA,02128,"$999,000",5,4,"2,190",42.366657,-71.03313,Multi-family home for sale,67404850,https://www.zillow.com/homedetails/135-Everett-St-East-Boston-MA-02128/67404850_zpid/,06-10-2022_19:28:53
288 Marlborough St #3,Boston,MA,02116,"$2,295,000",3,2,"2,035",42.3513,-71.08352,Townhouse for sale,59169837,https://www.zillow.com/homedetails/288-Marlborough-St-3-Boston-MA-02116/59169837_zpid/,06-10-2022_19:28:53
100 Shawmut Ave #312,Boston,MA,02118,"$1,809,900",2,2,"1,086",42.34683,-71.06571,Condo for sale,2062984358,https://www.zillow.com/homedetails/100-Shawmut-Ave-312-Boston-MA-02118/2062984358_zpid/,06-10-2022_19:28:53
100 Shawmut Ave #702,Boston,MA,02118,"$2,035,900",2,2,"1,167",,,Condo for sale,2082319843,https://www.zillow.com/homedetails/100-Shawmut-Ave-702-Boston-MA-02118/2082319843_zpid/,06-10-2022_19:28:53
12 Enterprise St UNIT 3,Dorchester,MA,02125,"$935,000",2,2,"1,614",42.323242,-71.06173,Condo for sale,318226200,https://www.zillow.com/homedetails/12-Enterprise-St-UNIT-3-Dorchester-MA-02125/318226200_zpid/,06-10-2022_19:28:53
100 Shawmut Ave #703,Boston,MA,02118,"$2,999,900",3,2,"1,731",42.34683,-71.06571,Condo for sale,2062943210,https://www.zillow.com/homedetails/100-Shawmut-Ave-703-Boston-MA-02118/2062943210_zpid/,06-10-2022_19:28:53
100 Shawmut Ave #406,Boston,MA,02118,"$736,900",1,1,675,42.34683,-71.06571,Condo for sale,2077290422,https://www.zillow.com/homedetails/100-Shawmut-Ave-406-Boston-MA-02118/2077290422_zpid/,06-10-2022_19:28:53
71 Saint Rose St,Jamaica Plain,MA,02130,"$1,295,000",8,3,"3,351",42.304775,-71.1173,Multi-family home for sale,59135379,https://www.zillow.com/homedetails/71-Saint-Rose-St-Jamaica-Plain-MA-02130/59135379_zpid/,06-10-2022_19:28:53
231 W Newton St APT 4,Boston,MA,02116,"$769,000",1,1,727,42.34444,-71.07994,Condo for sale,59179302,https://www.zillow.com/homedetails/231-W-Newton-St-APT-4-Boston-MA-02116/59179302_zpid/,06-10-2022_19:28:53
43 Coffey St UNIT 2,Dorchester,MA,02122,"$849,000",3,3,"2,047",42.288677,-71.04886,Condo for sale,190072387,https://www.zillow.com/homedetails/43-Coffey-St-UNIT-2-Dorchester-MA-02122/190072387_zpid/,06-10-2022_19:28:53
476 Baker St,West Roxbury,MA,02132,"$675,000",3,2,"1,378",42.28538,-71.17064,House for sale,59159085,https://www.zillow.com/homedetails/476-Baker-St-West-Roxbury-MA-02132/59159085_zpid/,06-10-2022_19:28:53
130 Talbot Ave,Dorchester Center,MA,02124,"$1,899,000",1,6,"5,523",,,Multi-family home for sale,2062946498,https://www.zillow.com/homedetails/130-Talbot-Ave-Dorchester-Center-MA-02124/2062946498_zpid/,06-10-2022_19:28:53
5261 Washington St #5261,West Roxbury,MA,02132,"$525,000",2,2,"1,110",,,Townhouse for sale,2069687439,https://www.zillow.com/homedetails/5261-Washington-St-5261-West-Roxbury-MA-02132/2069687439_zpid/,06-10-2022_19:28:53
3 Goodwin Pl APT 3,Boston,MA,02114,"$550,000",1,1,440,42.359867,-71.069016,Townhouse for sale,2082160986,https://www.zillow.com/homedetails/3-Goodwin-Pl-APT-3-Boston-MA-02114/2082160986_zpid/,06-10-2022_19:28:53
492 E 3rd St #1,South Boston,MA,02127,"$849,000",2,2,"1,355",42.33655,-71.04022,Condo for sale,63041769,https://www.zillow.com/homedetails/492-E-3rd-St-1-South-Boston-MA-02127/63041769_zpid/,06-10-2022_19:28:53
141 Dorchester Ave UNIT 120,South Boston,MA,02127,"$1,249,000",2,2,"1,514",42.34195,-71.057495,Condo for sale,87793605,https://www.zillow.com/homedetails/141-Dorchester-Ave-UNIT-120-South-Boston-MA-02127/87793605_zpid/,06-10-2022_19:28:53
30 Main St #11,Charlestown,MA,02129,"$899,000",2,2,"1,520",42.372795,-71.06209,Condo for sale,2062948137,https://www.zillow.com/homedetails/30-Main-St-11-Charlestown-MA-02129/2062948137_zpid/,06-10-2022_19:28:53
257 W 3rd St UNIT 3,South Boston,MA,02127,"$1,499,000",3,3,"1,932",42.33822,-71.04823,Townhouse for sale,90136935,https://www.zillow.com/homedetails/257-W-3rd-St-UNIT-3-South-Boston-MA-02127/90136935_zpid/,06-10-2022_19:28:53
481 Beech St,Roslindale,MA,02131,"$599,999",2,2,"1,098",42.27571,-71.133354,House for sale,59146402,https://www.zillow.com/homedetails/481-Beech-St-Roslindale-MA-02131/59146402_zpid/,06-10-2022_19:28:53
537-539 E 2nd St #301,Boston,MA,02127,"$1,275,000",2,2,"1,253",42.33699,-71.041794,Condo for sale,2074316238,https://www.zillow.com/homedetails/537-539-E-2nd-St-301-Boston-MA-02127/2074316238_zpid/,06-10-2022_19:28:53
36-38 Johnswood Rd #1,Roslindale,MA,02131,"$829,000",4,3,"1,989",42.283295,-71.12308,Condo for sale,2062957520,https://www.zillow.com/homedetails/36-38-Johnswood-Rd-1-Roslindale-MA-02131/2062957520_zpid/,06-10-2022_19:28:53
21 Father Francis Gilday St APT 303,Boston,MA,02118,"$1,149,000",2,2,"1,186",42.337063,-71.07364,Condo for sale,81856378,https://www.zillow.com/homedetails/21-Father-Francis-Gilday-St-APT-303-Boston-MA-02118/81856378_zpid/,06-10-2022_19:28:53
332 K St #1,South Boston,MA,02127,"$879,000",2,2,"1,353",42.332363,-71.03714,Condo for sale,63528684,https://www.zillow.com/homedetails/332-K-St-1-South-Boston-MA-02127/63528684_zpid/,06-10-2022_19:28:53
68 Day St,Jamaica Plain,MA,02130,"$2,195,000",9,5,"4,050",42.324295,-71.10822,Multi-family home for sale,81860144,https://www.zillow.com/homedetails/68-Day-St-Jamaica-Plain-MA-02130/81860144_zpid/,06-10-2022_19:28:53
9 Mystic St #2,Charlestown,MA,02129,"$1,265,000",3,4,"1,473",42.379677,-71.06258,Townhouse for sale,295324750,https://www.zillow.com/homedetails/9-Mystic-St-2-Charlestown-MA-02129/295324750_zpid/,06-10-2022_19:28:53
160 Williams St,Jamaica Plain,MA,02130,"$1,375,000",7,3,"3,420",42.303684,-71.10406,Multi-family home for sale,59134235,https://www.zillow.com/homedetails/160-Williams-St-Jamaica-Plain-MA-02130/59134235_zpid/,06-10-2022_19:28:53
385 Hyde Park Ave #2,Boston,MA,02131,"$625,000",3,3,"1,427",42.287365,-71.119,House for sale,190073459,https://www.zillow.com/homedetails/385-Hyde-Park-Ave-2-Boston-MA-02131/190073459_zpid/,06-10-2022_19:28:53
3 Avery St UNIT 509,Boston,MA,02111,"$675,000",1,2,"1,060",42.35346,-71.062775,Condo for sale,71546129,https://www.zillow.com/homedetails/3-Avery-St-UNIT-509-Boston-MA-02111/71546129_zpid/,06-10-2022_19:28:53
1344 River St,Hyde Park,MA,02136,"$649,000",4,4,"1,550",42.255005,-71.127556,House for sale,59129770,https://www.zillow.com/homedetails/1344-River-St-Hyde-Park-MA-02136/59129770_zpid/,06-10-2022_19:28:53
One Bedroom Plan,,,,"$795,000",1,1,511,42.35176,-71.064125,New construction,2066619536,https://www.zillow.com/community/parker/2066619536_zpid/,06-10-2022_19:28:53
6-8 Thomas St,Jamaica Plain,MA,02130,"$1,795,000",4,3,"3,408",42.310528,-71.11536,Multi-family home for sale,190013165,https://www.zillow.com/homedetails/6-8-Thomas-St-Jamaica-Plain-MA-02130/190013165_zpid/,06-10-2022_19:28:53
125 Park Dr APT 40,Boston,MA,02215,"$460,000",1,1,447,42.341854,-71.09789,Condo for sale,59168157,https://www.zillow.com/homedetails/125-Park-Dr-APT-40-Boston-MA-02215/59168157_zpid/,06-10-2022_19:28:53
3 Nira Ave,Jamaica Plain,MA,02130,"$1,250,000",8,4,"3,000",42.325146,-71.10817,Multi-family home for sale,59132996,https://www.zillow.com/homedetails/3-Nira-Ave-Jamaica-Plain-MA-02130/59132996_zpid/,06-10-2022_19:28:53
19 Appleton St,Boston,MA,02116,"$2,500,000",4,3,"2,275",42.34622,-71.07136,Multi-family home for sale,59175870,https://www.zillow.com/homedetails/19-Appleton-St-Boston-MA-02116/59175870_zpid/,06-10-2022_19:28:53
45 W 3rd St UNIT 324,South Boston,MA,02127,"$1,199,000",2,2,"1,092",42.34204,-71.05433,Condo for sale,318226237,https://www.zillow.com/homedetails/45-W-3rd-St-UNIT-324-South-Boston-MA-02127/318226237_zpid/,06-10-2022_19:28:53
79 Dartmouth St #1,Boston,MA,02116,"$799,000",2,1,850,42.34531,-71.074715,Condo for sale,59171697,https://www.zillow.com/homedetails/79-Dartmouth-St-1-Boston-MA-02116/59171697_zpid/,06-10-2022_19:28:53
78 Sydney St,Dorchester,MA,02125,"$1,289,000",3,3,"2,117",42.314224,-71.052895,House for sale,59112014,https://www.zillow.com/homedetails/78-Sydney-St-Dorchester-MA-02125/59112014_zpid/,06-10-2022_19:28:53
7 Bearse Ave #2,Dorchester Center,MA,02124,"$529,000",2,1,820,42.270866,-71.0636,Condo for sale,2139499911,https://www.zillow.com/homedetails/7-Bearse-Ave-2-Dorchester-Center-MA-02124/2139499911_zpid/,06-10-2022_19:28:53
30 Penniman Rd #702,Allston,MA,02134,"$1,525,000",3,2,"1,399",42.355286,-71.13618,Condo for sale,2063004502,https://www.zillow.com/homedetails/30-Penniman-Rd-702-Allston-MA-02134/2063004502_zpid/,06-10-2022_19:28:53
29 Mill St,Dorchester,MA,02122,"$1,899,000",,,,42.299522,-71.05299,Lot / Land for sale,59107408,https://www.zillow.com/homedetails/29-Mill-St-Dorchester-MA-02122/59107408_zpid/,06-10-2022_19:28:53
30 Penniman Rd #101,Allston,MA,02134,"$699,000",1,1,794,42.355286,-71.13618,Condo for sale,2063005026,https://www.zillow.com/homedetails/30-Penniman-Rd-101-Allston-MA-02134/2063005026_zpid/,06-10-2022_19:28:53
1 Franklin St #1001,Boston,MA,02110,"$1,299,000",1,1,923,42.356316,-71.059555,Condo for sale,246886644,https://www.zillow.com/homedetails/1-Franklin-St-1001-Boston-MA-02110/246886644_zpid/,06-10-2022_19:28:53
301 Saratoga St UNIT 3,Boston,MA,02128,"$649,000",2,2,943,42.378147,-71.031746,Condo for sale,333605583,https://www.zillow.com/homedetails/301-Saratoga-St-UNIT-3-Boston-MA-02128/333605583_zpid/,06-10-2022_19:28:53
9 W Broadway UNIT 419,Boston,MA,02127,"$599,000",1,1,677,,,Condo for sale,2063631440,https://www.zillow.com/homedetails/9-W-Broadway-UNIT-419-Boston-MA-02127/2063631440_zpid/,06-10-2022_19:28:53
357 Commercial St APT 817,Boston,MA,02109,"$1,295,000",2,2,"1,365",42.36608,-71.05094,Condo for sale,59164163,https://www.zillow.com/homedetails/357-Commercial-St-APT-817-Boston-MA-02109/59164163_zpid/,06-10-2022_19:28:53
472 W Broadway #304,Boston,MA,02127,"$949,000",2,2,897,,,Condo for sale,2063006201,https://www.zillow.com/homedetails/472-W-Broadway-304-Boston-MA-02127/2063006201_zpid/,06-10-2022_19:28:53
3 Bedroom Plan,,,,"$2,792,500",3,3,"1,551",42.343914,-71.063736,New construction,2080750905,https://www.zillow.com/community/quinn/2080750905_zpid/,06-10-2022_19:28:53
21 Fr Francis Gilday St APT 507,Boston,MA,02118,"$849,000",1,2,"1,138",42.337063,-71.07364,Condo for sale,2119153386,https://www.zillow.com/homedetails/21-Fr-Francis-Gilday-St-APT-507-Boston-MA-02118/2119153386_zpid/,06-10-2022_19:28:53
1 Dalton St APT 2603,Boston,MA,02115,"$5,495,000",2,3,"2,226",42.344948,-71.08425,Condo for sale,333605659,https://www.zillow.com/homedetails/1-Dalton-St-APT-2603-Boston-MA-02115/333605659_zpid/,06-10-2022_19:28:53
Residence 3 Plan,,,38,"$749,495",2,2,"1,215",42.37751,-71.03848,New construction,2067433572,https://www.zillow.com/community/38-lexington-st/2067433572_zpid/,06-10-2022_19:28:53
41 S Munroe Ter,Dorchester,MA,02122,"$1,775,000",1,4,"5,347",42.292,-71.05312,Multi-family home for sale,59113677,https://www.zillow.com/homedetails/41-S-Munroe-Ter-Dorchester-MA-02122/59113677_zpid/,06-10-2022_19:28:53
621 E 3rd St #3,South Boston,MA,02127,"$799,000",2,2,880,42.33636,-71.03485,Townhouse for sale,113389940,https://www.zillow.com/homedetails/621-E-3rd-St-3-South-Boston-MA-02127/113389940_zpid/,06-10-2022_19:28:53
21 Father Francis Gilday St APT 507,Boston,MA,02118,"$849,000",1,2,"1,138",42.337063,-71.07364,Condo for sale,81856678,https://www.zillow.com/homedetails/21-Father-Francis-Gilday-St-APT-507-Boston-MA-02118/81856678_zpid/,06-10-2022_19:28:53
14 Homewood Rd,West Roxbury,MA,02132,"$845,000",3,2,"1,715",42.27785,-71.15668,House for sale,59158329,https://www.zillow.com/homedetails/14-Homewood-Rd-West-Roxbury-MA-02132/59158329_zpid/,06-10-2022_19:28:53
632 Beech St,Roslindale,MA,02131,"$709,000",4,3,"1,887",42.27226,-71.1273,House for sale,59146340,https://www.zillow.com/homedetails/632-Beech-St-Roslindale-MA-02131/59146340_zpid/,06-10-2022_19:28:53
55 Lagrange St #14B,Boston,MA,02116,"$985,000",1,1,570,42.351757,-71.06404,Condo for sale,2063039252,https://www.zillow.com/homedetails/55-Lagrange-St-14B-Boston-MA-02116/2063039252_zpid/,06-10-2022_19:28:53
55 Lagrange St #5D,Boston,MA,02116,"$1,475,000",2,2,"1,041",42.351757,-71.06404,Condo for sale,2063039433,https://www.zillow.com/homedetails/55-Lagrange-St-5D-Boston-MA-02116/2063039433_zpid/,06-10-2022_19:28:53
55 Lagrange St #5F,Boston,MA,02116,"$635,000",,1,455,42.351757,-71.06404,Condo for sale,2063039445,https://www.zillow.com/homedetails/55-Lagrange-St-5F-Boston-MA-02116/2063039445_zpid/,06-10-2022_19:28:53
55 Lagrange St #9G,Boston,MA,02116,"$915,000",1,1,655,42.351757,-71.06404,Condo for sale,2063039446,https://www.zillow.com/homedetails/55-Lagrange-St-9G-Boston-MA-02116/2063039446_zpid/,06-10-2022_19:28:53
55 Lagrange St #14J,Boston,MA,02116,"$939,000",,1,579,42.351757,-71.06404,Condo for sale,2063039457,https://www.zillow.com/homedetails/55-Lagrange-St-14J-Boston-MA-02116/2063039457_zpid/,06-10-2022_19:28:53
55 Lagrange St #7A,Boston,MA,02116,"$755,000",,1,537,42.351757,-71.06404,Condo for sale,2063039465,https://www.zillow.com/homedetails/55-Lagrange-St-7A-Boston-MA-02116/2063039465_zpid/,06-10-2022_19:28:53
18 Morrill St,Dorchester,MA,02125,"$1,175,000",6,2,"2,335",42.316196,-71.060555,House for sale,59109622,https://www.zillow.com/homedetails/18-Morrill-St-Dorchester-MA-02125/59109622_zpid/,06-10-2022_19:28:53
133 Seaport Blvd #1915,Boston,MA,02210,"$1,289,000",1,1,800,42.351147,-71.04449,Condo for sale,333606158,https://www.zillow.com/homedetails/133-Seaport-Blvd-1915-Boston-MA-02210/333606158_zpid/,06-10-2022_19:28:53
133 Seaport Blvd UNIT 2005,Boston,MA,02210,"$1,279,000",1,1,682,42.351147,-71.04449,Condo for sale,333606166,https://www.zillow.com/homedetails/133-Seaport-Blvd-UNIT-2005-Boston-MA-02210/333606166_zpid/,06-10-2022_19:28:53
300 Commercial St APT 502,Boston,MA,02109,"$579,000",,1,553,42.365116,-71.05146,Condo for sale,59164494,https://www.zillow.com/homedetails/300-Commercial-St-APT-502-Boston-MA-02109/59164494_zpid/,06-10-2022_19:28:53
177 Beacon St APT 3,Boston,MA,02116,"$1,895,000",3,2,"1,380",42.35426,-71.07582,Condo for sale,59171944,https://www.zillow.com/homedetails/177-Beacon-St-APT-3-Boston-MA-02116/59171944_zpid/,06-10-2022_19:28:53
47 Forbes St #2,Boston,MA,02130,"$1,295,000",4,3,"2,101",42.320908,-71.10681,Condo for sale,190073420,https://www.zillow.com/homedetails/47-Forbes-St-2-Boston-MA-02130/190073420_zpid/,06-10-2022_19:28:53
661 Bennington St #3,East Boston,MA,02128,"$599,000",2,2,941,42.383686,-71.01468,Condo for sale,81378802,https://www.zillow.com/homedetails/661-Bennington-St-3-East-Boston-MA-02128/81378802_zpid/,06-10-2022_19:28:53
26 Running Brook Rd,West Roxbury,MA,02132,"$650,000",3,2,"1,869",42.26425,-71.15121,House for sale,59161543,https://www.zillow.com/homedetails/26-Running-Brook-Rd-West-Roxbury-MA-02132/59161543_zpid/,06-10-2022_19:28:53
191 Bunker Hill St #302,Charlestown,MA,02129,"$469,000",1,1,567,42.37901,-71.061554,Condo for sale,2063047268,https://www.zillow.com/homedetails/191-Bunker-Hill-St-302-Charlestown-MA-02129/2063047268_zpid/,06-10-2022_19:28:53
1 Bedroom Plan,,,,"$815,700",1,1,654,42.343914,-71.063736,New construction,2080750904,https://www.zillow.com/community/quinn/2080750904_zpid/,06-10-2022_19:28:53
61 Chandler St #1,Boston,MA,02116,"$1,795,500",2,3,"1,456",42.34697,-71.07173,Townhouse for sale,102987880,https://www.zillow.com/homedetails/61-Chandler-St-1-Boston-MA-02116/102987880_zpid/,06-10-2022_19:28:53
566 Commonwealth Ave APT 903,Boston,MA,02215,"$559,000",1,1,820,42.34868,-71.09892,Condo for sale,2113714085,https://www.zillow.com/homedetails/566-Commonwealth-Ave-APT-903-Boston-MA-02215/2113714085_zpid/,06-10-2022_19:28:53
160 Newton St APT 3,Brighton,MA,02135,"$539,000",3,2,"1,053",42.355637,-71.1698,Condo for sale,71496983,https://www.zillow.com/homedetails/160-Newton-St-APT-3-Brighton-MA-02135/71496983_zpid/,06-10-2022_19:28:53
119 Saint Botolph St APT 2,Boston,MA,02115,"$3,165,000",3,4,"2,247",42.344406,-71.08174,Condo for sale,2063057986,https://www.zillow.com/homedetails/119-Saint-Botolph-St-APT-2-Boston-MA-02115/2063057986_zpid/,06-10-2022_19:28:53
277 Border St #202,Boston,MA,02128,"$545,000",1,1,690,,,Condo for sale,2066443282,https://www.zillow.com/homedetails/277-Border-St-202-Boston-MA-02128/2066443282_zpid/,06-10-2022_19:28:53
63 Mount Vernon St APT 1,Boston,MA,02108,"$1,250,000",1,2,"1,654",42.358593,-71.06633,Condo for sale,2121289070,https://www.zillow.com/homedetails/63-Mount-Vernon-St-APT-1-Boston-MA-02108/2121289070_zpid/,06-10-2022_19:28:53
1131 Hyde Park Ave,Hyde Park,MA,02136,"$899,000",7,3,"3,969",42.26083,-71.12322,House for sale,59126642,https://www.zillow.com/homedetails/1131-Hyde-Park-Ave-Hyde-Park-MA-02136/59126642_zpid/,06-10-2022_19:28:53
19 Swan Ave,East Boston,MA,02128,"$1,299,000",5,4,"3,600",42.388554,-70.99717,Multi-family home for sale,59120644,https://www.zillow.com/homedetails/19-Swan-Ave-East-Boston-MA-02128/59120644_zpid/,06-10-2022_19:28:53
214 Market St #502,Boston,MA,02135,"$788,000",1,1,779,42.355164,-71.14937,Condo for sale,333607010,https://www.zillow.com/homedetails/214-Market-St-502-Boston-MA-02135/333607010_zpid/,06-10-2022_19:28:53
18 Hancock St APT 3,Boston,MA,02114,"$1,750,000",2,2,"1,211",42.360474,-71.064255,Townhouse for sale,59180626,https://www.zillow.com/homedetails/18-Hancock-St-APT-3-Boston-MA-02114/59180626_zpid/,06-10-2022_19:28:53
214 Market St #202,Boston,MA,02135,"$878,000",2,2,"1,010",42.355164,-71.14937,Condo for sale,333606985,https://www.zillow.com/homedetails/214-Market-St-202-Boston-MA-02135/333606985_zpid/,06-10-2022_19:28:53
50 Leo M Birmingham Pkwy UNIT 401,Brighton,MA,02135,"$718,000",1,1,710,42.360054,-71.14625,Condo for sale,2063077215,https://www.zillow.com/homedetails/50-Leo-M-Birmingham-Pkwy-UNIT-401-Brighton-MA-02135/2063077215_zpid/,06-10-2022_19:28:53
28 Braemore Rd #B,Boston,MA,02135,"$325,000",1,1,470,42.338535,-71.150826,Condo for sale,2101032270,https://www.zillow.com/homedetails/28-Braemore-Rd-B-Boston-MA-02135/2101032270_zpid/,06-10-2022_19:28:53
36 Mount Hope St,Roslindale,MA,02131,"$799,900",4,3,"1,377",42.28422,-71.11732,House for sale,59141462,https://www.zillow.com/homedetails/36-Mount-Hope-St-Roslindale-MA-02131/59141462_zpid/,06-10-2022_19:28:53
30 Penniman Rd #302,Allston,MA,02134,"$909,000",2,1,935,,,Condo for sale,2065568202,https://www.zillow.com/homedetails/30-Penniman-Rd-302-Allston-MA-02134/2065568202_zpid/,06-10-2022_19:28:53
49 Hobart St #49A,Brighton,MA,02135,"$1,980,000",4,3,"2,476",42.355217,-71.159615,Condo for sale,2063081205,https://www.zillow.com/homedetails/49-Hobart-St-49A-Brighton-MA-02135/2063081205_zpid/,06-10-2022_19:28:53
49 Hobart St #49B,Brighton,MA,02135,"$1,088,000",3,3,"1,487",42.355217,-71.159615,Condo for sale,2063081216,https://www.zillow.com/homedetails/49-Hobart-St-49B-Brighton-MA-02135/2063081216_zpid/,06-10-2022_19:28:53
275 Sumner St #8,East Boston,MA,02128,"$725,000",2,2,"1,215",42.367798,-71.03756,Condo for sale,59119860,https://www.zillow.com/homedetails/275-Sumner-St-8-East-Boston-MA-02128/59119860_zpid/,06-10-2022_19:28:53
10 Narragansett St #2,Dorchester,MA,02122,"$689,000",2,1,965,42.28605,-71.04715,Condo for sale,2063087111,https://www.zillow.com/homedetails/10-Narragansett-St-2-Dorchester-MA-02122/2063087111_zpid/,06-10-2022_19:28:53
10 Narragansett St #1,Dorchester,MA,02122,"$989,000",3,3,"1,500",42.28605,-71.04715,Condo for sale,2063087114,https://www.zillow.com/homedetails/10-Narragansett-St-1-Dorchester-MA-02122/2063087114_zpid/,06-10-2022_19:28:53
164 Boylston St,Jamaica Plain,MA,02130,"$1,600,000",8,6,"3,278",42.315796,-71.102455,Multi-family home for sale,81860154,https://www.zillow.com/homedetails/164-Boylston-St-Jamaica-Plain-MA-02130/81860154_zpid/,06-10-2022_19:28:53
99 Fulton St APT 1-3,Boston,MA,02109,"$1,190,500",1,2,"1,225",42.362087,-71.05318,Condo for sale,59177695,https://www.zillow.com/homedetails/99-Fulton-St-APT-1-3-Boston-MA-02109/59177695_zpid/,06-10-2022_19:28:53
133 Seaport Blvd #1510,Boston,MA,02210,"$1,450,000",1,2,779,42.351147,-71.04449,Condo for sale,333606086,https://www.zillow.com/homedetails/133-Seaport-Blvd-1510-Boston-MA-02210/333606086_zpid/,06-10-2022_19:28:53
241 Perkins St UNIT C605,Jamaica Plain,MA,02130,"$1,300,000",2,2,"2,047",42.32173,-71.122246,Condo for sale,2072248913,https://www.zillow.com/homedetails/241-Perkins-St-UNIT-C605-Jamaica-Plain-MA-02130/2072248913_zpid/,06-10-2022_19:28:53
134 Dana Ave,Hyde Park,MA,02136,"$795,000",4,3,"1,893",42.24878,-71.12076,House for sale,59127829,https://www.zillow.com/homedetails/134-Dana-Ave-Hyde-Park-MA-02136/59127829_zpid/,06-10-2022_19:28:53
4873 Washington St APT 2,West Roxbury,MA,02132,"$514,800",2,2,"1,070",42.270363,-71.147385,Condo for sale,59153200,https://www.zillow.com/homedetails/4873-Washington-St-APT-2-West-Roxbury-MA-02132/59153200_zpid/,06-10-2022_19:28:53
139 Maple St,West Roxbury,MA,02132,"$769,000",3,1,"1,275",42.291252,-71.15698,House for sale,59155380,https://www.zillow.com/homedetails/139-Maple-St-West-Roxbury-MA-02132/59155380_zpid/,06-10-2022_19:28:53
14 Murray Ct #1,Boston,MA,02128,"$795,000",2,2,"1,025",42.367603,-71.03765,Condo for sale,2080644418,https://www.zillow.com/homedetails/14-Murray-Ct-1-Boston-MA-02128/2080644418_zpid/,06-10-2022_19:28:53
4 Battery Wharf #4510,Boston,MA,02109,"$2,195,000",2,2,"1,571",,,Condo for sale,2108845768,https://www.zillow.com/homedetails/4-Battery-Wharf-4510-Boston-MA-02109/2108845768_zpid/,06-10-2022_19:28:53
1 Charles St S UNIT 1510,Boston,MA,02116,"$1,595,000",2,2,"1,179",42.35642,-71.069435,Condo for sale,2063629892,https://www.zillow.com/homedetails/1-Charles-St-S-UNIT-1510-Boston-MA-02116/2063629892_zpid/,06-10-2022_19:28:53
117 Wren St,West Roxbury,MA,02132,"$1,050,000",5,3,"2,444",42.279617,-71.14989,House for sale,59156659,https://www.zillow.com/homedetails/117-Wren-St-West-Roxbury-MA-02132/59156659_zpid/,06-10-2022_19:28:53
23 Cheverus Rd #3,Dorchester,MA,02124,"$569,000",2,2,"1,141",42.292152,-71.063515,Condo for sale,87797449,https://www.zillow.com/homedetails/23-Cheverus-Rd-3-Dorchester-MA-02124/87797449_zpid/,06-10-2022_19:28:53
128 Beacon St UNIT K,Boston,MA,02116,"$6,499,000",3,3,"2,927",42.35517,-71.07469,Townhouse for sale,2066628016,https://www.zillow.com/homedetails/128-Beacon-St-UNIT-K-Boston-MA-02116/2066628016_zpid/,06-10-2022_19:28:53
108-110 George St,Roxbury,MA,02119,"$2,100,000",1,6,"5,238",42.325172,-71.071815,Multi-family home for sale,2063220160,https://www.zillow.com/homedetails/108-110-George-St-Roxbury-MA-02119/2063220160_zpid/,06-10-2022_19:28:53
25 Temple St APT 1,Boston,MA,02114,"$1,890,000",2,2,"1,630",42.360485,-71.06388,Townhouse for sale,59180542,https://www.zillow.com/homedetails/25-Temple-St-APT-1-Boston-MA-02114/59180542_zpid/,06-10-2022_19:28:53
166 Marlborough St APT 1,Boston,MA,02116,"$4,395,000",4,4,"2,925",42.352463,-71.079216,Condo for sale,190072453,https://www.zillow.com/homedetails/166-Marlborough-St-APT-1-Boston-MA-02116/190072453_zpid/,06-10-2022_19:28:53
1710 Dorchester Ave #304,Dorchester Center,MA,02124,"$499,000",1,1,745,42.292423,-71.06244,Condo for sale,2063220633,https://www.zillow.com/homedetails/1710-Dorchester-Ave-304-Dorchester-Center-MA-02124/2063220633_zpid/,06-10-2022_19:28:53
114 Strathmore Rd APT 402,Brighton,MA,02135,"$528,000",2,1,846,42.338963,-71.15156,Condo for sale,59094001,https://www.zillow.com/homedetails/114-Strathmore-Rd-APT-402-Brighton-MA-02135/59094001_zpid/,06-10-2022_19:28:53
1 Odonnell Sq,Boston,MA,02122,"$799,000",4,3,"2,506",42.290104,-71.048096,House for sale,59116676,https://www.zillow.com/homedetails/1-Odonnell-Sq-Boston-MA-02122/59116676_zpid/,06-10-2022_19:28:53
1313 Washington Street Pl #L113,Hyde Park,MA,02136,"$175,000",,-,--,42.24368,-71.12266,Condo for sale,2063134969,https://www.zillow.com/homedetails/1313-Washington-Street-Pl-L113-Hyde-Park-MA-02136/2063134969_zpid/,06-10-2022_19:28:53
546 Columbus Ave #2,Boston,MA,02118,"$3,999,000",4,4,"2,850",42.341316,-71.08045,Townhouse for sale,59212618,https://www.zillow.com/homedetails/546-Columbus-Ave-2-Boston-MA-02118/59212618_zpid/,06-10-2022_19:28:53
100 Shawmut Ave #U,Boston,MA,02118,"$6,536,900",4,4,"3,021",,,Condo for sale,2071533706,https://www.zillow.com/homedetails/100-Shawmut-Ave-U-Boston-MA-02118/2071533706_zpid/,06-10-2022_19:28:53
103 Rutherford Ave #1,Charlestown,MA,02129,"$739,000",2,1,892,42.373745,-71.06451,Townhouse for sale,59100052,https://www.zillow.com/homedetails/103-Rutherford-Ave-1-Charlestown-MA-02129/59100052_zpid/,06-10-2022_19:28:53
10 Charlesgate E #2,Boston,MA,02115,"$649,000",1,1,623,,,Condo for sale,2063633747,https://www.zillow.com/homedetails/10-Charlesgate-E-2-Boston-MA-02115/2063633747_zpid/,06-10-2022_19:28:53
846 E 5th St #1,South Boston,MA,02127,"$924,900",2,2,"1,124",42.334328,-71.026405,Condo for sale,63531080,https://www.zillow.com/homedetails/846-E-5th-St-1-South-Boston-MA-02127/63531080_zpid/,06-10-2022_19:28:53
3305 Washington St #402,Jamaica Plain,MA,02130,"$999,900",2,2,"1,188",42.310287,-71.1037,Condo for sale,2063490319,https://www.zillow.com/homedetails/3305-Washington-St-402-Jamaica-Plain-MA-02130/2063490319_zpid/,06-10-2022_19:28:53
3305 Washington St #201,Jamaica Plain,MA,02130,"$899,900",2,2,"1,197",42.310287,-71.1037,Condo for sale,2063490334,https://www.zillow.com/homedetails/3305-Washington-St-201-Jamaica-Plain-MA-02130/2063490334_zpid/,06-10-2022_19:28:53
9 Upton St #2,Boston,MA,02118,"$1,025,000",2,1,765,42.342045,-71.07153,Townhouse for sale,67094757,https://www.zillow.com/homedetails/9-Upton-St-2-Boston-MA-02118/67094757_zpid/,06-10-2022_19:28:53
20 Salman St,West Roxbury,MA,02132,"$1,299,000",6,4,"3,583",42.26595,-71.16544,House for sale,59160570,https://www.zillow.com/homedetails/20-Salman-St-West-Roxbury-MA-02132/59160570_zpid/,06-10-2022_19:28:53
290 Shawmut Ave #2,Boston,MA,02118,"$1,785,000",3,2,"1,363",42.34269,-71.06933,Condo for sale,59211004,https://www.zillow.com/homedetails/290-Shawmut-Ave-2-Boston-MA-02118/59211004_zpid/,06-10-2022_19:28:53
150 Orleans St UNIT 102,East Boston,MA,02128,"$679,999",2,2,931,42.370518,-71.035934,Condo for sale,59119635,https://www.zillow.com/homedetails/150-Orleans-St-UNIT-102-East-Boston-MA-02128/59119635_zpid/,06-10-2022_19:28:53
1650 Commonwealth Ave #C1,Brighton,MA,02135,"$699,000",,-,"1,546",,,Condo for sale,2063239361,https://www.zillow.com/homedetails/1650-Commonwealth-Ave-C1-Brighton-MA-02135/2063239361_zpid/,06-10-2022_19:28:53
60 Iffley Rd #3,Jamaica Plain,MA,02130,"$625,000",2,1,"1,236",42.312176,-71.098335,Condo for sale,90138506,https://www.zillow.com/homedetails/60-Iffley-Rd-3-Jamaica-Plain-MA-02130/90138506_zpid/,06-10-2022_19:28:53
48 Woodward St,Boston,MA,02127,"$1,800,000",7,4,"3,346",42.33095,-71.0555,Multi-family home for sale,2063241999,https://www.zillow.com/homedetails/48-Woodward-St-Boston-MA-02127/2063241999_zpid/,06-10-2022_19:28:53
453 Massachusetts Ave APT 7,Boston,MA,02118,"$775,000",2,1,760,42.34018,-71.08164,Townhouse for sale,2098925425,https://www.zillow.com/homedetails/453-Massachusetts-Ave-APT-7-Boston-MA-02118/2098925425_zpid/,06-10-2022_19:28:53
17 Buckingham St,Hyde Park,MA,02136,"$669,000",3,2,"1,764",42.241318,-71.13366,House for sale,59128986,https://www.zillow.com/homedetails/17-Buckingham-St-Hyde-Park-MA-02136/59128986_zpid/,06-10-2022_19:28:53
197 8th St PENTHOUSE 32,Charlestown,MA,02129,"$1,899,000",2,3,"1,634",42.373383,-71.05198,Condo for sale,59098605,https://www.zillow.com/homedetails/197-8th-St-PENTHOUSE-32-Charlestown-MA-02129/59098605_zpid/,06-10-2022_19:28:53
50 Liberty Dr UNIT 11C,Boston,MA,02210,"$4,495,000",2,3,"1,807",42.35425,-71.04446,Condo for sale,318226280,https://www.zillow.com/homedetails/50-Liberty-Dr-UNIT-11C-Boston-MA-02210/318226280_zpid/,06-10-2022_19:28:53
10-12 Rockledge St,Roxbury,MA,02119,"$1,420,000",1,5,"3,343",42.326614,-71.08967,Multi-family home for sale,190041287,https://www.zillow.com/homedetails/10-12-Rockledge-St-Roxbury-MA-02119/190041287_zpid/,06-10-2022_19:28:53
290 Commonwealth Ave APT 5,Boston,MA,02115,"$1,995,000",2,2,"1,505",42.34961,-71.08485,Condo for sale,59177091,https://www.zillow.com/homedetails/290-Commonwealth-Ave-APT-5-Boston-MA-02115/59177091_zpid/,06-10-2022_19:28:53
6-6-6A Maynard St,Roslindale,MA,02131,"$839,900",6,4,"2,392",42.275806,-71.12435,Multi-family home for sale,2063018373,https://www.zillow.com/homedetails/6-6-6A-Maynard-St-Roslindale-MA-02131/2063018373_zpid/,06-10-2022_19:28:53
271 Beacon St APT 1,Boston,MA,02116,"$545,000",,1,375,42.353165,-71.07986,Townhouse for sale,59170744,https://www.zillow.com/homedetails/271-Beacon-St-APT-1-Boston-MA-02116/59170744_zpid/,06-10-2022_19:28:53
918 Beacon St APT 3,Boston,MA,02215,"$769,000",2,2,932,42.34665,-71.106445,Townhouse for sale,59171553,https://www.zillow.com/homedetails/918-Beacon-St-APT-3-Boston-MA-02215/59171553_zpid/,06-10-2022_19:28:53
188 Brookline Ave UNIT 23A,Boston,MA,02215,"$2,950,000",3,3,"1,852",42.344147,-71.10151,Condo for sale,318225398,https://www.zillow.com/homedetails/188-Brookline-Ave-UNIT-23A-Boston-MA-02215/318225398_zpid/,06-10-2022_19:28:53
94 Bragdon St,Roxbury,MA,02119,"$1,249,000",9,3,"3,180",42.319035,-71.10001,Multi-family home for sale,59187238,https://www.zillow.com/homedetails/94-Bragdon-St-Roxbury-MA-02119/59187238_zpid/,06-10-2022_19:28:53
532 E 6th St #1,Boston,MA,02127,"$599,000",2,1,931,42.33312,-71.0393,Condo for sale,2104767017,https://www.zillow.com/homedetails/532-E-6th-St-1-Boston-MA-02127/2104767017_zpid/,06-10-2022_19:28:53
117 Saratoga St,East Boston,MA,02128,"$975,000",3,3,"1,816",42.376747,-71.03562,Multi-family home for sale,59123261,https://www.zillow.com/homedetails/117-Saratoga-St-East-Boston-MA-02128/59123261_zpid/,06-10-2022_19:28:53
96 Milton Ave,Dorchester,MA,02124,"$1,350,000",1,3,"4,689",42.282356,-71.07591,Multi-family home for sale,59113498,https://www.zillow.com/homedetails/96-Milton-Ave-Dorchester-MA-02124/59113498_zpid/,06-10-2022_19:28:53
200 Salem St #1,Boston,MA,02113,"$529,000",2,1,517,42.367043,-71.05449,Condo for sale,59163756,https://www.zillow.com/homedetails/200-Salem-St-1-Boston-MA-02113/59163756_zpid/,06-10-2022_19:28:53
290 North St #2,Boston,MA,02113,"$2,095,000",3,3,"2,206",42.364037,-71.0521,Townhouse for sale,295325449,https://www.zillow.com/homedetails/290-North-St-2-Boston-MA-02113/295325449_zpid/,06-10-2022_19:28:53
11 Walley St #408,Boston,MA,02128,"$699,900",2,2,941,42.389866,-70.99833,Condo for sale,2079507639,https://www.zillow.com/homedetails/11-Walley-St-408-Boston-MA-02128/2079507639_zpid/,06-10-2022_19:28:53
1 Nassau St UNIT 1901,Boston,MA,02111,"$979,000",2,2,"1,024",42.34854,-71.062935,Condo for sale,67709859,https://www.zillow.com/homedetails/1-Nassau-St-UNIT-1901-Boston-MA-02111/67709859_zpid/,06-10-2022_19:28:53
115 Dakota St #1,Dorchester Center,MA,02124,"$379,000",1,1,612,42.299786,-71.06755,Condo for sale,2078623420,https://www.zillow.com/homedetails/115-Dakota-St-1-Dorchester-Center-MA-02124/2078623420_zpid/,06-10-2022_19:28:53
1501 Commonwealth Ave #402,Brighton,MA,02135,"$874,900",2,2,995,42.34759,-71.14111,Condo for sale,239893301,https://www.zillow.com/homedetails/1501-Commonwealth-Ave-402-Brighton-MA-02135/239893301_zpid/,06-10-2022_19:28:53
