address_street,city,state,zip_code,price,beds,baths,area_sq_ft,latitude,longitude,status_text,list_url,date_scraped,listing_id,listing_time
1313 E Patapsco Ave,Baltimore,MD,21225,"$135,999",3,2,930,39.232708,-76.59186,Townhouse for sale,https://www.zillow.com/homedetails/1313-E-Patapsco-Ave-Baltimore-MD-21225/294976653_zpid/,06-23-2022_21:52:58,294976653,1 day on Zillow
13 Jones Falls Ter,Baltimore,MD,21209,"$350,000",3,4,"1,785",39.38383,-76.66302,Townhouse for sale,https://www.zillow.com/homedetails/13-Jones-Falls-Ter-Baltimore-MD-21209/36350498_zpid/,06-23-2022_21:52:58,36350498,Open: Sun. 11am-1pm
7053 Toby Dr #7053,Baltimore,MD,21209,"$229,000",2,2,"1,165",39.384884,-76.67082,Apartment for sale,https://www.zillow.com/homedetails/7053-Toby-Dr-7053-Baltimore-MD-21209/36355025_zpid/,06-23-2022_21:52:58,36355025,1 day on Zillow
217 S Duncan St,Baltimore,MD,21231,"$235,000",2,2,812,39.288715,-76.58653,Townhouse for sale,https://www.zillow.com/homedetails/217-S-Duncan-St-Baltimore-MD-21231/36428676_zpid/,06-23-2022_21:52:58,36428676,1 day on Zillow
618 S Luzerne Ave,Baltimore,MD,21224,"$224,900",2,2,798,39.284443,-76.580185,Townhouse for sale,https://www.zillow.com/homedetails/618-S-Luzerne-Ave-Baltimore-MD-21224/36430223_zpid/,06-23-2022_21:52:58,36430223,3D Homes Icon3D Tour
609 S Glover St,Baltimore,MD,21224,"$425,000",3,3,"2,748",39.284676,-76.579056,Townhouse for sale,https://www.zillow.com/homedetails/609-S-Glover-St-Baltimore-MD-21224/36430344_zpid/,06-23-2022_21:52:58,36430344,3D Homes Icon3D Tour
3034 Hudson St,Baltimore,MD,21224,"$305,000",2,1,"1,332",39.282516,-76.57309,Townhouse for sale,https://www.zillow.com/homedetails/3034-Hudson-St-Baltimore-MD-21224/36432263_zpid/,06-23-2022_21:52:58,36432263,1 day on Zillow
711 S Robinson St,Baltimore,MD,21224,"$415,000",4,4,"1,702",39.283867,-76.57189,Townhouse for sale,https://www.zillow.com/homedetails/711-S-Robinson-St-Baltimore-MD-21224/36433298_zpid/,06-23-2022_21:52:58,36433298,Open: Sat. 11am-1pm
116 S Curley St,Baltimore,MD,21224,"$425,000",3,3,"1,599",39.2907,-76.575554,Townhouse for sale,https://www.zillow.com/homedetails/116-S-Curley-St-Baltimore-MD-21224/36433690_zpid/,06-23-2022_21:52:58,36433690,Open: Sat. 12-2pm
133 E West St,Baltimore,MD,21230,"$365,000",3,3,"2,449",39.275963,-76.610886,Townhouse for sale,https://www.zillow.com/homedetails/133-E-West-St-Baltimore-MD-21230/36538983_zpid/,06-23-2022_21:52:58,36538983,1 day on Zillow
1271 William St,Baltimore,MD,21230,"$375,000",2,2,"2,549",39.274784,-76.61009,Townhouse for sale,https://www.zillow.com/homedetails/1271-William-St-Baltimore-MD-21230/36539406_zpid/,06-23-2022_21:52:58,36539406,Open: Sun. 12-2pm
100 Harborview Dr UNIT 204,Baltimore,MD,21230,"$250,000",2,2,"1,447",39.279404,-76.604355,Condo for sale,https://www.zillow.com/homedetails/100-Harborview-Dr-UNIT-204-Baltimore-MD-21230/36542361_zpid/,06-23-2022_21:52:58,36542361,1 day on Zillow
2855 Maudlin Ave,Baltimore,MD,21230,"$215,000",3,2,"1,774",39.260654,-76.65506,House for sale,https://www.zillow.com/homedetails/2855-Maudlin-Ave-Baltimore-MD-21230/36546407_zpid/,06-23-2022_21:52:58,36546407,1 day on Zillow
507 Annabel Ave,Baltimore,MD,21225,"$159,900",3,1,"1,040",39.237534,-76.60308,Townhouse for sale,https://www.zillow.com/homedetails/507-Annabel-Ave-Baltimore-MD-21225/36551323_zpid/,06-23-2022_21:52:58,36551323,1 day on Zillow
929 S Bouldin St,Baltimore,MD,21224,"$259,900",2,1,"1,156",39.28178,-76.57023,Townhouse for sale,https://www.zillow.com/homedetails/929-S-Bouldin-St-Baltimore-MD-21224/36558505_zpid/,06-23-2022_21:52:58,36558505,1 day on Zillow
705 S Highland Ave,Baltimore,MD,21224,"$229,900",2,2,"1,701",39.284092,-76.56861,Townhouse for sale,https://www.zillow.com/homedetails/705-S-Highland-Ave-Baltimore-MD-21224/36559095_zpid/,06-23-2022_21:52:58,36559095,1 day on Zillow
3417 Hudson St,Baltimore,MD,21224,"$320,000",2,2,"1,234",39.28231,-76.56825,Townhouse for sale,https://www.zillow.com/homedetails/3417-Hudson-St-Baltimore-MD-21224/36559220_zpid/,06-23-2022_21:52:58,36559220,Open: Sun. 11am-1pm
821 S Dean St,Baltimore,MD,21224,"$450,000",3,2,"1,618",39.282936,-76.56574,Townhouse for sale,https://www.zillow.com/homedetails/821-S-Dean-St-Baltimore-MD-21224/36559355_zpid/,06-23-2022_21:52:58,36559355,1 day on Zillow
349 Ilchester Ave,Baltimore,MD,21218,"$140,000",3,1,"1,244",39.322613,-76.611275,Townhouse for sale,https://www.zillow.com/homedetails/349-Ilchester-Ave-Baltimore-MD-21218/36475918_zpid/,06-23-2022_21:52:58,36475918,2 days on Zillow
2526 Francis St,Baltimore,MD,21217,"$139,000",3,2,"1,120",39.313168,-76.64282,Townhouse for sale,https://www.zillow.com/homedetails/2526-Francis-St-Baltimore-MD-21217/36481621_zpid/,06-23-2022_21:52:58,36481621,2 days on Zillow
3862 Quarry Ave,Baltimore,MD,21211,"$336,000",3,3,"1,736",39.335102,-76.63774,Townhouse for sale,https://www.zillow.com/homedetails/3862-Quarry-Ave-Baltimore-MD-21211/36486111_zpid/,06-23-2022_21:52:58,36486111,2 days on Zillow
2306 Poplar Grove St,Baltimore,MD,21216,"$100,000",3,2,"1,280",39.313705,-76.66632,Townhouse for sale,https://www.zillow.com/homedetails/2306-Poplar-Grove-St-Baltimore-MD-21216/36490578_zpid/,06-23-2022_21:52:58,36490578,2 days on Zillow
2810 Keyworth Ave,Baltimore,MD,21215,"$210,000",3,2,"1,800",39.332516,-76.66398,Townhouse for sale,https://www.zillow.com/homedetails/2810-Keyworth-Ave-Baltimore-MD-21215/36502023_zpid/,06-23-2022_21:52:58,36502023,Open: Sat. 12-4pm
3200 Westmont Ave,Baltimore,MD,21216,"$175,000",3,2,"1,280",39.301575,-76.67004,Townhouse for sale,https://www.zillow.com/homedetails/3200-Westmont-Ave-Baltimore-MD-21216/36512573_zpid/,06-23-2022_21:52:58,36512573,Open: Sun. 12-3pm
2100 Eagle St,Baltimore,MD,21223,"$5.0,000",3,1,--,39.280594,-76.64925,Auction,https://www.zillow.com/homedetails/2100-Eagle-St-Baltimore-MD-21223/36527056_zpid/,06-23-2022_21:52:58,36527056,2 days on Zillow
1106 W Cross St,Baltimore,MD,21230,"$150,000",3,2,976,39.28158,-76.63046,Townhouse for sale,https://www.zillow.com/homedetails/1106-W-Cross-St-Baltimore-MD-21230/36534235_zpid/,06-23-2022_21:52:58,36534235,2 days on Zillow
715 Portland St,Baltimore,MD,21230,"$224,900",2,1,"1,172",39.285,-76.62622,Townhouse for sale,https://www.zillow.com/homedetails/715-Portland-St-Baltimore-MD-21230/36535670_zpid/,06-23-2022_21:52:58,36535670,2 days on Zillow
3200 Loch Raven Blvd,Baltimore,MD,21218,"$135,000",3,3,"1,158",39.325016,-76.60055,Townhouse for sale,https://www.zillow.com/homedetails/3200-Loch-Raven-Blvd-Baltimore-MD-21218/36458167_zpid/,06-23-2022_21:52:58,36458167,3 days on Zillow
908 N Central Ave,Baltimore,MD,21202,"$168,900",3,1,"1,924",39.30078,-76.60045,Townhouse for sale,https://www.zillow.com/homedetails/908-N-Central-Ave-Baltimore-MD-21202/36468846_zpid/,06-23-2022_21:52:58,36468846,3 days on Zillow
1101 Saint Paul St UNIT 1910,Baltimore,MD,21202,"$249,900",2,2,"1,196",39.302654,-76.61418,Condo for sale,https://www.zillow.com/homedetails/1101-Saint-Paul-St-UNIT-1910-Baltimore-MD-21202/36470305_zpid/,06-23-2022_21:52:58,36470305,3 days on Zillow
2808 Huntingdon Ave,Baltimore,MD,21211,"$215,000",3,2,"1,348",39.320744,-76.62314,Townhouse for sale,https://www.zillow.com/homedetails/2808-Huntingdon-Ave-Baltimore-MD-21211/36471997_zpid/,06-23-2022_21:52:58,36471997,3 days on Zillow
434 Whitridge Ave,Baltimore,MD,21218,"$189,000",2,3,"1,384",39.32171,-76.61013,Townhouse for sale,https://www.zillow.com/homedetails/434-Whitridge-Ave-Baltimore-MD-21218/36475720_zpid/,06-23-2022_21:52:58,36475720,Play video iconVideo Walkthrough
1632 Gwynns Falls Pkwy,Baltimore,MD,21217,"$315,000",7,4,"2,788",39.317867,-76.64958,Townhouse for sale,https://www.zillow.com/homedetails/1632-Gwynns-Falls-Pkwy-Baltimore-MD-21217/36481312_zpid/,06-23-2022_21:52:58,36481312,3 days on Zillow
2117 McCulloh St,Baltimore,MD,21217,"$169,000",3,2,"1,350",39.30937,-76.6358,Townhouse for sale,https://www.zillow.com/homedetails/2117-McCulloh-St-Baltimore-MD-21217/36486764_zpid/,06-23-2022_21:52:58,36486764,3 days on Zillow
3808 Barrington Rd,Baltimore,MD,21215,"$209,000",4,2,"1,560",39.331284,-76.67987,House for sale,https://www.zillow.com/homedetails/3808-Barrington-Rd-Baltimore-MD-21215/36497123_zpid/,06-23-2022_21:52:58,36497123,3 days on Zillow
3136 Sequoia Ave,Baltimore,MD,21215,"$189,900",3,3,"1,190",39.328407,-76.66663,Townhouse for sale,https://www.zillow.com/homedetails/3136-Sequoia-Ave-Baltimore-MD-21215/36497885_zpid/,06-23-2022_21:52:58,36497885,3 days on Zillow
2621 Georgetown Rd,Baltimore,MD,21230,"$155,000",3,2,"1,324",39.268005,-76.65792,House for sale,https://www.zillow.com/homedetails/2621-Georgetown-Rd-Baltimore-MD-21230/36546212_zpid/,06-23-2022_21:52:58,36546212,4 days on Zillow
3217 Round Rd,Baltimore,MD,21225,"$175,000",6,4,"2,258",39.245827,-76.62681,Auction,https://www.zillow.com/homedetails/3217-Round-Rd-Baltimore-MD-21225/36550364_zpid/,06-23-2022_21:52:58,36550364,Open: Sun. 12-2pm
4907 Walther Ave,Baltimore,MD,21214,"$349,000",3,2,"2,208",39.343197,-76.560776,House for sale,https://www.zillow.com/homedetails/4907-Walther-Ave-Baltimore-MD-21214/36579789_zpid/,06-23-2022_21:52:58,36579789,Price cut: $900 (Jun 20)
5417 Springlake Way,Baltimore,MD,21212,"$799,000",4,4,"3,025",39.362373,-76.616905,House for sale,https://www.zillow.com/homedetails/5417-Springlake-Way-Baltimore-MD-21212/36588331_zpid/,06-23-2022_21:52:58,36588331,Open: Sat. 12-2pm
504 Beaumont Ave,Baltimore,MD,21212,"$175,000",6,-,"1,932",39.351944,-76.60895,Auction,https://www.zillow.com/homedetails/504-Beaumont-Ave-Baltimore-MD-21212/36613891_zpid/,06-23-2022_21:52:58,36613891,4 days on Zillow
116 Homeland Ave,Baltimore,MD,21212,"$499,000",3,3,"2,277",39.35375,-76.62121,House for sale,https://www.zillow.com/homedetails/116-Homeland-Ave-Baltimore-MD-21212/36622158_zpid/,06-23-2022_21:52:58,36622158,3D Homes Icon3D Tour
2368 Nutmeg Ter,Baltimore,MD,21209,"$169,900",3,2,"1,188",39.349155,-76.65768,Townhouse for sale,https://www.zillow.com/homedetails/2368-Nutmeg-Ter-Baltimore-MD-21209/36622784_zpid/,06-23-2022_21:52:58,36622784,4 days on Zillow
2515 Boston St #P3,Baltimore,MD,21224,"$1,099,000",3,4,"3,757",39.279984,-76.58058,Condo for sale,https://www.zillow.com/homedetails/2515-Boston-St-P3-Baltimore-MD-21224/36430024_zpid/,06-23-2022_21:52:58,36430024,5 days on Zillow
3924 Reisterstown Rd,Baltimore,MD,21215,"$165,000",3,2,"1,300",39.333138,-76.66394,Townhouse for sale,https://www.zillow.com/homedetails/3924-Reisterstown-Rd-Baltimore-MD-21215/36502007_zpid/,06-23-2022_21:52:58,36502007,5 days on Zillow
1700 N Bond St,Baltimore,MD,21213,"$225,000",3,2,--,39.309612,-76.59716,Townhouse for sale,https://www.zillow.com/homedetails/1700-N-Bond-St-Baltimore-MD-21213/36449348_zpid/,06-23-2022_21:52:58,36449348,7 days on Zillow
1718 E Oliver St,Baltimore,MD,21213,"$250,000",4,3,--,39.307713,-76.59363,Townhouse for sale,https://www.zillow.com/homedetails/1718-E-Oliver-St-Baltimore-MD-21213/36449762_zpid/,06-23-2022_21:52:58,36449762,"Price cut: $10,000 (Jun 23)"
1116 N Luzerne Ave,Baltimore,MD,21213,"$199,000",2,2,--,39.304386,-76.581474,Townhouse for sale,https://www.zillow.com/homedetails/1116-N-Luzerne-Ave-Baltimore-MD-21213/36455001_zpid/,06-23-2022_21:52:58,36455001,7 days on Zillow
3954 Wilsby Ave,Baltimore,MD,21218,"$150,000",3,1,"1,200",39.337814,-76.604744,Townhouse for sale,https://www.zillow.com/homedetails/3954-Wilsby-Ave-Baltimore-MD-21218/36457754_zpid/,06-23-2022_21:52:58,36457754,7 days on Zillow
1920 Mount Royal Ter,Baltimore,MD,21217,"$450,000",4,3,"3,284",39.31137,-76.626495,Townhouse for sale,https://www.zillow.com/homedetails/1920-Mount-Royal-Ter-Baltimore-MD-21217/36483256_zpid/,06-23-2022_21:52:58,36483256,7 days on Zillow
2030 Ruxton Ave,Baltimore,MD,21216,"$168,000",3,2,--,39.311546,-76.655205,Townhouse for sale,https://www.zillow.com/homedetails/2030-Ruxton-Ave-Baltimore-MD-21216/36495262_zpid/,06-23-2022_21:52:58,36495262,7 days on Zillow
3801 Sequoia Ave,Baltimore,MD,21215,"$499,000",6,4,"1,886",39.33151,-76.67899,House for sale,https://www.zillow.com/homedetails/3801-Sequoia-Ave-Baltimore-MD-21215/36497101_zpid/,06-23-2022_21:52:58,36497101,7 days on Zillow
2307 Tioga Pkwy,Baltimore,MD,21215,"$195,000",4,2,--,39.319466,-76.654396,Townhouse for sale,https://www.zillow.com/homedetails/2307-Tioga-Pkwy-Baltimore-MD-21215/36501564_zpid/,06-23-2022_21:52:58,36501564,7 days on Zillow
3423 Reisterstown Rd,Baltimore,MD,21215,"$225,000",3,2,--,39.327347,-76.65861,Townhouse for sale,https://www.zillow.com/homedetails/3423-Reisterstown-Rd-Baltimore-MD-21215/36502376_zpid/,06-23-2022_21:52:58,36502376,7 days on Zillow
2402 Shelleydale Dr,Baltimore,MD,21209,"$679,900",4,3,"2,625",39.370415,-76.67829,House for sale,https://www.zillow.com/homedetails/2402-Shelleydale-Dr-Baltimore-MD-21209/2062762928_zpid/,06-23-2022_21:52:58,2062762928,8 days on Zillow
1628 N Broadway,Baltimore,MD,21213,"$285,000",3,4,"1,360",,,Townhouse for sale,https://www.zillow.com/homedetails/1628-N-Broadway-Baltimore-MD-21213/2065907475_zpid/,06-23-2022_21:52:58,2065907475,8 days on Zillow
461 S Bouldin St,Baltimore,MD,21224,"$725,000",3,4,"3,231",39.28618,-76.570526,Townhouse for sale,https://www.zillow.com/homedetails/461-S-Bouldin-St-Baltimore-MD-21224/241969825_zpid/,06-23-2022_21:52:58,241969825,Open: Sun. 1-3pm
7004 Conley St,Baltimore,MD,21224,"$179,900",2,3,"1,211",39.290386,-76.529564,Townhouse for sale,https://www.zillow.com/homedetails/7004-Conley-St-Baltimore-MD-21224/36236520_zpid/,06-23-2022_21:52:58,36236520,"Price cut: $5,100 (Jun 22)"
2515 Boston St UNIT 604,Baltimore,MD,21224,"$314,500",1,1,"1,041",39.279984,-76.58058,Condo for sale,https://www.zillow.com/homedetails/2515-Boston-St-UNIT-604-Baltimore-MD-21224/36429970_zpid/,06-23-2022_21:52:58,36429970,Open: Sat. 12-2pm
516 S Rose St,Baltimore,MD,21224,"$259,900",2,2,936,39.285522,-76.580864,Townhouse for sale,https://www.zillow.com/homedetails/516-S-Rose-St-Baltimore-MD-21224/36430107_zpid/,06-23-2022_21:52:58,36430107,8 days on Zillow
250 President St UNIT 710,Baltimore,MD,21202,"$489,000",2,2,"1,488",39.285984,-76.604,Condo for sale,https://www.zillow.com/homedetails/250-President-St-UNIT-710-Baltimore-MD-21202/36436910_zpid/,06-23-2022_21:52:58,36436910,8 days on Zillow
2131 Jefferson St,Baltimore,MD,21205,"$170,000",2,2,"1,072",39.296364,-76.58683,Townhouse for sale,https://www.zillow.com/homedetails/2131-Jefferson-St-Baltimore-MD-21205/36439119_zpid/,06-23-2022_21:52:58,36439119,8 days on Zillow
2128 Orleans St,Baltimore,MD,21231,"$235,000",3,2,"1,280",39.295635,-76.586754,Townhouse for sale,https://www.zillow.com/homedetails/2128-Orleans-St-Baltimore-MD-21231/36439139_zpid/,06-23-2022_21:52:58,36439139,8 days on Zillow
3712 Mayberry Ave UNIT D,Baltimore,MD,21206,"$98,000",2,2,939,39.35582,-76.54087,Condo for sale,https://www.zillow.com/homedetails/3712-Mayberry-Ave-UNIT-D-Baltimore-MD-21206/36580393_zpid/,06-23-2022_21:52:58,36580393,8 days on Zillow
5829 Benton Heights Ave,Baltimore,MD,21206,"$160,000",2,3,"1,152",39.345394,-76.54384,Townhouse for sale,https://www.zillow.com/homedetails/5829-Benton-Heights-Ave-Baltimore-MD-21206/36582177_zpid/,06-23-2022_21:52:58,36582177,3D Homes Icon3D Tour
6903 Moyer Ave,Baltimore,MD,21234,"$309,900",4,2,"1,635",39.363297,-76.5417,House for sale,https://www.zillow.com/homedetails/6903-Moyer-Ave-Baltimore-MD-21234/36584132_zpid/,06-23-2022_21:52:58,36584132,8 days on Zillow
1208 Cochran Ave,Baltimore,MD,21239,"$219,900",3,2,"1,152",39.35667,-76.59515,Townhouse for sale,https://www.zillow.com/homedetails/1208-Cochran-Ave-Baltimore-MD-21239/36587908_zpid/,06-23-2022_21:52:58,36587908,8 days on Zillow
339 Rosebank Ave,Baltimore,MD,21212,"$649,000",4,4,"2,045",39.361603,-76.615135,House for sale,https://www.zillow.com/homedetails/339-Rosebank-Ave-Baltimore-MD-21212/36588296_zpid/,06-23-2022_21:52:58,36588296,Open: Sat. 12-2pm
5606 Pimlico Rd,Baltimore,MD,21209,"$675,000",5,4,"2,720",39.35845,-76.67157,House for sale,https://www.zillow.com/homedetails/5606-Pimlico-Rd-Baltimore-MD-21209/36603119_zpid/,06-23-2022_21:52:58,36603119,8 days on Zillow
1649 Wadsworth Way,Baltimore,MD,21239,"$210,000",3,2,"1,520",39.361465,-76.580986,Townhouse for sale,https://www.zillow.com/homedetails/1649-Wadsworth-Way-Baltimore-MD-21239/36619890_zpid/,06-23-2022_21:52:58,36619890,Open: Sat. 11am-1pm
1400 Lancaster St UNIT 803,Baltimore,MD,21231,"$525,000",2,3,"1,805",39.282467,-76.59699,Condo for sale,https://www.zillow.com/homedetails/1400-Lancaster-St-UNIT-803-Baltimore-MD-21231/67870534_zpid/,06-23-2022_21:52:58,67870534,8 days on Zillow
1211 Light St UNIT 405,Baltimore,MD,21230,"$275,000",2,2,"1,058",39.275593,-76.61188,Condo for sale,https://www.zillow.com/homedetails/1211-Light-St-UNIT-405-Baltimore-MD-21230/67870908_zpid/,06-23-2022_21:52:58,67870908,8 days on Zillow
7006 Park Dr,Baltimore,MD,21234,"$225,000",2,2,"1,044",39.370064,-76.55534,House for sale,https://www.zillow.com/homedetails/7006-Park-Dr-Baltimore-MD-21234/36610257_zpid/,06-23-2022_21:52:58,36610257,9 days on Zillow
5523 Lynview Ave,Baltimore,MD,21215,"$35,000",3,1,"1,080",39.34692,-76.692924,Auction,https://www.zillow.com/homedetails/5523-Lynview-Ave-Baltimore-MD-21215/36623622_zpid/,06-23-2022_21:52:58,36623622,9 days on Zillow
4818 Coleherne Rd,Baltimore,MD,21229,"$262,500",3,3,"2,196",39.29344,-76.7024,House for sale,https://www.zillow.com/homedetails/4818-Coleherne-Rd-Baltimore-MD-21229/36629244_zpid/,06-23-2022_21:52:58,36629244,9 days on Zillow
539 Canton Ct,Baltimore,MD,21224,"$599,990",3,4,"2,406",39.285686,-76.56828,Townhouse for sale,https://www.zillow.com/homedetails/539-Canton-Ct-Baltimore-MD-21224/72226714_zpid/,06-23-2022_21:52:58,72226714,9 days on Zillow
675 President St UNIT 1606,Baltimore,MD,21202,"$410,000",2,2,"1,426",39.283752,-76.601,Condo for sale,https://www.zillow.com/homedetails/675-President-St-UNIT-1606-Baltimore-MD-21202/90009776_zpid/,06-23-2022_21:52:58,90009776,9 days on Zillow
4206 Kenwood Ave,Baltimore,MD,21206,"$325,000",3,2,"1,534",39.353973,-76.530556,House for sale,https://www.zillow.com/homedetails/4206-Kenwood-Ave-Baltimore-MD-21206/111109238_zpid/,06-23-2022_21:52:58,111109238,10 days on Zillow
1236 W Pratt St,Baltimore,MD,21223,"$300,000",,-,"4,332",39.28582,-76.637566,Auction,https://www.zillow.com/homedetails/1236-W-Pratt-St-Baltimore-MD-21223/2062776772_zpid/,06-23-2022_21:52:58,2062776772,10 days on Zillow
832 N Luzerne Ave,Baltimore,MD,21205,"$265,000",3,3,"2,058",39.300896,-76.58126,Townhouse for sale,https://www.zillow.com/homedetails/832-N-Luzerne-Ave-Baltimore-MD-21205/36442214_zpid/,06-23-2022_21:52:58,36442214,10 days on Zillow
1804 E Lafayette Ave,Baltimore,MD,21213,"$135,000",3,1,--,39.310925,-76.592735,Townhouse for sale,https://www.zillow.com/homedetails/1804-E-Lafayette-Ave-Baltimore-MD-21213/36448481_zpid/,06-23-2022_21:52:58,36448481,10 days on Zillow
103 Cross Keys Rd #R103D2,Baltimore,MD,21210,"$175,000",2,2,"1,157",39.35954,-76.64663,Condo for sale,https://www.zillow.com/homedetails/103-Cross-Keys-Rd-R103D2-Baltimore-MD-21210/36591794_zpid/,06-23-2022_21:52:58,36591794,11 days on Zillow
3811 Hayward Ave,Baltimore,MD,21215,"$119,000",3,2,--,39.346684,-76.68335,Foreclosure,https://www.zillow.com/homedetails/3811-Hayward-Ave-Baltimore-MD-21215/36599276_zpid/,06-23-2022_21:52:58,36599276,11 days on Zillow
3328 Spaulding Ave,Baltimore,MD,21215,"$119,000",4,1,"1,100",39.346825,-76.67759,Townhouse for sale,https://www.zillow.com/homedetails/3328-Spaulding-Ave-Baltimore-MD-21215/36599693_zpid/,06-23-2022_21:52:58,36599693,11 days on Zillow
2900 Fendall Rd,Baltimore,MD,21207,"$329,900",4,2,"1,532",39.32601,-76.70585,House for sale,https://www.zillow.com/homedetails/2900-Fendall-Rd-Baltimore-MD-21207/36627283_zpid/,06-23-2022_21:52:58,36627283,11 days on Zillow
100 Harborview Dr UNIT 2110,Baltimore,MD,21230,"$389,900",2,2,"1,664",39.279404,-76.604355,Condo for sale,https://www.zillow.com/homedetails/100-Harborview-Dr-UNIT-2110-Baltimore-MD-21230/67870564_zpid/,06-23-2022_21:52:58,67870564,11 days on Zillow
704 N Collington Ave,Baltimore,MD,21205,"$299,000",3,3,"1,885",39.299118,-76.58693,Townhouse for sale,https://www.zillow.com/homedetails/704-N-Collington-Ave-Baltimore-MD-21205/36444136_zpid/,06-23-2022_21:52:58,36444136,"Price cut: $16,000 (Jun 20)"
1701 N Durham St,Baltimore,MD,21213,"$77,000",3,2,--,39.31004,-76.59211,Foreclosure,https://www.zillow.com/homedetails/1701-N-Durham-St-Baltimore-MD-21213/36453831_zpid/,06-23-2022_21:52:58,36453831,12 days on Zillow
1419 E Federal St,Baltimore,MD,21213,"$239,000",2,3,--,39.30818,-76.59915,Townhouse for sale,https://www.zillow.com/homedetails/1419-E-Federal-St-Baltimore-MD-21213/36460905_zpid/,06-23-2022_21:52:58,36460905,12 days on Zillow
1833 Aisquith St,Baltimore,MD,21202,"$119,000",3,1,960,39.31125,-76.602356,Townhouse for sale,https://www.zillow.com/homedetails/1833-Aisquith-St-Baltimore-MD-21202/36461032_zpid/,06-23-2022_21:52:58,36461032,12 days on Zillow
1741 Druid Hill Ave,Baltimore,MD,21217,"$10,000",5,2,--,39.30593,-76.63303,Auction,https://www.zillow.com/homedetails/1741-Druid-Hill-Ave-Baltimore-MD-21217/36488439_zpid/,06-23-2022_21:52:58,36488439,14 days on Zillow
3810 Bonner Rd,Baltimore,MD,21216,"$265,000",4,4,"2,254",39.323406,-76.68226,Townhouse for sale,https://www.zillow.com/homedetails/3810-Bonner-Rd-Baltimore-MD-21216/36489524_zpid/,06-23-2022_21:52:58,36489524,14 days on Zillow
3018 Walbrook Ave,Baltimore,MD,21216,"$50,000",4,2,--,39.310436,-76.668335,Auction,https://www.zillow.com/homedetails/3018-Walbrook-Ave-Baltimore-MD-21216/36491171_zpid/,06-23-2022_21:52:58,36491171,14 days on Zillow
2115 Walbrook Ave,Baltimore,MD,21217,"$65,000",3,1,--,39.310547,-76.651855,Townhouse for sale,https://www.zillow.com/homedetails/2115-Walbrook-Ave-Baltimore-MD-21217/36494820_zpid/,06-23-2022_21:52:58,36494820,14 days on Zillow
4026 Fairfax Rd,Baltimore,MD,21216,"$220,000",4,3,"1,808",39.3215,-76.68488,Townhouse for sale,https://www.zillow.com/homedetails/4026-Fairfax-Rd-Baltimore-MD-21216/36498946_zpid/,06-23-2022_21:52:58,36498946,14 days on Zillow
4206 Reisterstown Rd,Baltimore,MD,21215,"$199,000",3,1,"1,100",39.336197,-76.66617,Townhouse for sale,https://www.zillow.com/homedetails/4206-Reisterstown-Rd-Baltimore-MD-21215/36504156_zpid/,06-23-2022_21:52:58,36504156,14 days on Zillow
1702 N Payson St,Baltimore,MD,21217,"$59,000",3,1,--,39.307938,-76.65004,Townhouse for sale,https://www.zillow.com/homedetails/1702-N-Payson-St-Baltimore-MD-21217/36505004_zpid/,06-23-2022_21:52:58,36505004,14 days on Zillow
817 N Calhoun St,Baltimore,MD,21217,"$67,000",2,1,--,39.298454,-76.63982,Townhouse for sale,https://www.zillow.com/homedetails/817-N-Calhoun-St-Baltimore-MD-21217/36509603_zpid/,06-23-2022_21:52:58,36509603,14 days on Zillow
1204 N Bentalou St,Baltimore,MD,21216,"$250,000",4,3,"2,316",39.301952,-76.65394,Townhouse for sale,https://www.zillow.com/homedetails/1204-N-Bentalou-St-Baltimore-MD-21216/36513636_zpid/,06-23-2022_21:52:58,36513636,14 days on Zillow
2106 Braddish Ave,Baltimore,MD,21216,"$76,000",3,2,--,39.311714,-76.66162,Foreclosure,https://www.zillow.com/homedetails/2106-Braddish-Ave-Baltimore-MD-21216/36491984_zpid/,06-23-2022_21:52:58,36491984,15 days on Zillow
1926 W North Ave,Baltimore,MD,21217,"$160,000",3,1,--,39.31,-76.64895,Townhouse for sale,https://www.zillow.com/homedetails/1926-W-North-Ave-Baltimore-MD-21217/36494185_zpid/,06-23-2022_21:52:58,36494185,"Price cut: $15,000 (Jun 22)"
3819 Belle Ave,Baltimore,MD,21215,"$160,000",3,1,"1,696",39.333046,-76.6804,House for sale,https://www.zillow.com/homedetails/3819-Belle-Ave-Baltimore-MD-21215/36497081_zpid/,06-23-2022_21:52:58,36497081,15 days on Zillow
4016 Bateman Ave,Baltimore,MD,21216,"$345,000",4,3,"2,332",39.316963,-76.686226,House for sale,https://www.zillow.com/homedetails/4016-Bateman-Ave-Baltimore-MD-21216/36499452_zpid/,06-23-2022_21:52:58,36499452,15 days on Zillow
921 N Carrollton Ave,Baltimore,MD,21217,"$115,000",3,3,--,39.300022,-76.63707,Foreclosure,https://www.zillow.com/homedetails/921-N-Carrollton-Ave-Baltimore-MD-21217/36510041_zpid/,06-23-2022_21:52:58,36510041,15 days on Zillow
1008 Ellicott Dr,Baltimore,MD,21216,"$50,000",2,1,840,39.29977,-76.66927,Auction,https://www.zillow.com/homedetails/1008-Ellicott-Dr-Baltimore-MD-21216/36512983_zpid/,06-23-2022_21:52:58,36512983,15 days on Zillow
1817 McHenry St,Baltimore,MD,21223,"$119,000",2,2,650,39.284107,-76.64565,Townhouse for sale,https://www.zillow.com/homedetails/1817-McHenry-St-Baltimore-MD-21223/36519794_zpid/,06-23-2022_21:52:58,36519794,"Price cut: $10,000 (Jun 20)"
309 S Bentalou St,Baltimore,MD,21223,"$10,000",3,1,--,39.28378,-76.65237,Auction,https://www.zillow.com/homedetails/309-S-Bentalou-St-Baltimore-MD-21223/36526143_zpid/,06-23-2022_21:52:58,36526143,15 days on Zillow
303 N Edgewood St,Baltimore,MD,21229,"$153,000",2,1,840,39.291153,-76.675125,Townhouse for sale,https://www.zillow.com/homedetails/303-N-Edgewood-St-Baltimore-MD-21229/36529502_zpid/,06-23-2022_21:52:58,36529502,15 days on Zillow
5166 Stafford Rd,Baltimore,MD,21229,"$199,000",4,1,"1,102",39.280396,-76.70155,Townhouse for sale,https://www.zillow.com/homedetails/5166-Stafford-Rd-Baltimore-MD-21229/36544673_zpid/,06-23-2022_21:52:58,36544673,"Price cut: $16,000 (Jun 23)"
149 S East Ave,Baltimore,MD,21224,"$349,900",4,3,"2,408",39.290203,-76.57151,Townhouse for sale,https://www.zillow.com/homedetails/149-S-East-Ave-Baltimore-MD-21224/36560500_zpid/,06-23-2022_21:52:58,36560500,Open: Sun. 12-2pm
334 Elrino St,Baltimore,MD,21224,"$230,000",3,2,"1,460",39.28971,-76.54324,Townhouse for sale,https://www.zillow.com/homedetails/334-Elrino-St-Baltimore-MD-21224/36563434_zpid/,06-23-2022_21:52:58,36563434,"Price cut: $19,900 (Jun 21)"
4202 Glenarm Ave,Baltimore,MD,21206,"$134,900",3,3,"1,656",39.344967,-76.54054,Foreclosure,https://www.zillow.com/homedetails/4202-Glenarm-Ave-Baltimore-MD-21206/36567872_zpid/,06-23-2022_21:52:58,36567872,16 days on Zillow
3011 Pinewood Ave,Baltimore,MD,21214,"$265,000",3,1,"1,644",39.36085,-76.55232,House for sale,https://www.zillow.com/homedetails/3011-Pinewood-Ave-Baltimore-MD-21214/36585039_zpid/,06-23-2022_21:52:58,36585039,Play video iconVideo Walkthrough
5004 Pilgrim Rd,Baltimore,MD,21214,"$365,000",5,3,"1,790",39.351093,-76.5731,House for sale,https://www.zillow.com/homedetails/5004-Pilgrim-Rd-Baltimore-MD-21214/36585694_zpid/,06-23-2022_21:52:58,36585694,16 days on Zillow
5348 Gist Ave,Baltimore,MD,21215,"$209,900",4,3,"1,080",39.347534,-76.686165,Townhouse for sale,https://www.zillow.com/homedetails/5348-Gist-Ave-Baltimore-MD-21215/36598722_zpid/,06-23-2022_21:52:58,36598722,"Price cut: $10,000 (Jun 22)"
1924 Woodbourne Ave,Baltimore,MD,21239,"$250,000",3,2,"1,678",39.35519,-76.57986,Townhouse for sale,https://www.zillow.com/homedetails/1924-Woodbourne-Ave-Baltimore-MD-21239/36605979_zpid/,06-23-2022_21:52:58,36605979,16 days on Zillow
2711 Shirey Ave,Baltimore,MD,21214,"$197,500",3,3,"1,280",39.347614,-76.569786,House for sale,https://www.zillow.com/homedetails/2711-Shirey-Ave-Baltimore-MD-21214/36607009_zpid/,06-23-2022_21:52:58,36607009,16 days on Zillow
315 Collins Ave S,Baltimore,MD,21229,"$32,000",,,"8,599",39.280758,-76.68311,Lot / Land for sale,https://www.zillow.com/homedetails/315-Collins-Ave-S-Baltimore-MD-21229/36523130_zpid/,06-23-2022_21:52:58,36523130,18 days on Zillow
2738 Wilkens Ave,Baltimore,MD,21223,"$92,000",3,1,"1,183",39.27794,-76.65974,Townhouse for sale,https://www.zillow.com/homedetails/2738-Wilkens-Ave-Baltimore-MD-21223/36525643_zpid/,06-23-2022_21:52:58,36525643,18 days on Zillow
713 S Hanover St,Baltimore,MD,21230,"$400,000",3,4,"1,560",39.2806,-76.61557,Townhouse for sale,https://www.zillow.com/homedetails/713-S-Hanover-St-Baltimore-MD-21230/36536057_zpid/,06-23-2022_21:52:58,36536057,3D Homes Icon3D Tour
2714 Bookert Dr,Baltimore,MD,21225,"$125,000",2,1,756,39.24831,-76.627686,Townhouse for sale,https://www.zillow.com/homedetails/2714-Bookert-Dr-Baltimore-MD-21225/36550232_zpid/,06-23-2022_21:52:58,36550232,18 days on Zillow
307 Drew St,Baltimore,MD,21224,"$220,000",2,2,"1,460",39.290314,-76.54367,Townhouse for sale,https://www.zillow.com/homedetails/307-Drew-St-Baltimore-MD-21224/36563388_zpid/,06-23-2022_21:52:58,36563388,18 days on Zillow
1419 Madison Ave,Baltimore,MD,21217,"$275,000",6,2,--,39.30461,-76.62834,Townhouse for sale,https://www.zillow.com/homedetails/1419-Madison-Ave-Baltimore-MD-21217/36488300_zpid/,06-23-2022_21:52:58,36488300,19 days on Zillow
1513 N Ellamont St,Baltimore,MD,21216,"$105,000",3,2,"1,700",39.30479,-76.67041,Townhouse for sale,https://www.zillow.com/homedetails/1513-N-Ellamont-St-Baltimore-MD-21216/36512176_zpid/,06-23-2022_21:52:58,36512176,"Price cut: $5,000 (Jun 16)"
113 Welcome Aly,Baltimore,MD,21201,"$289,000",2,1,900,39.28252,-76.616585,Townhouse for sale,https://www.zillow.com/homedetails/113-Welcome-Aly-Baltimore-MD-21201/36535852_zpid/,06-23-2022_21:52:58,36535852,Play video iconVideo Walkthrough
4010 Chesley Ave,Baltimore,MD,21206,"$379,900",4,3,"2,688",39.359047,-76.5305,House for sale,https://www.zillow.com/homedetails/4010-Chesley-Ave-Baltimore-MD-21206/36584247_zpid/,06-23-2022_21:52:58,36584247,"Price cut: $5,000 (Jun 20)"
4100 N Charles St UNIT 201,Baltimore,MD,21218,"$495,000",2,2,"1,902",39.339,-76.6191,Condo for sale,https://www.zillow.com/homedetails/4100-N-Charles-St-UNIT-201-Baltimore-MD-21218/36471454_zpid/,06-23-2022_21:52:58,36471454,21 days on Zillow
430 Whitridge Ave,Baltimore,MD,21218,"$159,500",3,2,"1,344",39.32171,-76.61024,Townhouse for sale,https://www.zillow.com/homedetails/430-Whitridge-Ave-Baltimore-MD-21218/36475719_zpid/,06-23-2022_21:52:58,36475719,21 days on Zillow
1701 Druid Hill Ave,Baltimore,MD,21217,"$120,000",4,2,--,39.30534,-76.63238,Townhouse for sale,https://www.zillow.com/homedetails/1701-Druid-Hill-Ave-Baltimore-MD-21217/36488457_zpid/,06-23-2022_21:52:58,36488457,21 days on Zillow
1433 N Fulton Ave,Baltimore,MD,21217,"$10,000",2,1,--,39.304905,-76.645836,Auction,https://www.zillow.com/homedetails/1433-N-Fulton-Ave-Baltimore-MD-21217/36492731_zpid/,06-23-2022_21:52:58,36492731,21 days on Zillow
2106 Whittier Ave,Baltimore,MD,21217,"$234,999",3,3,"1,997",39.315514,-76.64993,Townhouse for sale,https://www.zillow.com/homedetails/2106-Whittier-Ave-Baltimore-MD-21217/36495836_zpid/,06-23-2022_21:52:58,36495836,"Price cut: $5,000 (Jun 22)"
2424 Liberty Heights Ave,Baltimore,MD,21215,"$308,999",6,5,--,39.31927,-76.65462,Townhouse for sale,https://www.zillow.com/homedetails/2424-Liberty-Heights-Ave-Baltimore-MD-21215/36501578_zpid/,06-23-2022_21:52:58,36501578,"Price cut: $17,112 (Jun 16)"
2910 Norfolk Ave,Baltimore,MD,21215,"$97,000",4,1,--,39.327778,-76.66143,House for sale,https://www.zillow.com/homedetails/2910-Norfolk-Ave-Baltimore-MD-21215/36501885_zpid/,06-23-2022_21:52:58,36501885,21 days on Zillow
3400 Park Heights Ave,Baltimore,MD,21215,"$650,000",5,2,--,39.32607,-76.65789,Townhouse for sale,https://www.zillow.com/homedetails/3400-Park-Heights-Ave-Baltimore-MD-21215/36502336_zpid/,06-23-2022_21:52:58,36502336,21 days on Zillow
1011 Mount Holly St,Baltimore,MD,21229,"$225,900",4,2,"1,290",39.299053,-76.67981,Townhouse for sale,https://www.zillow.com/homedetails/1011-Mount-Holly-St-Baltimore-MD-21229/36511053_zpid/,06-23-2022_21:52:58,36511053,"Price cut: $4,000 (Jun 21)"
801 Key Hwy UNIT 358,Baltimore,MD,21230,"$429,900",1,2,"1,521",39.280544,-76.60602,Condo for sale,https://www.zillow.com/homedetails/801-Key-Hwy-UNIT-358-Baltimore-MD-21230/92202276_zpid/,06-23-2022_21:52:58,92202276,21 days on Zillow
815 1/2 McHenry St,Baltimore,MD,21230,"$325,000",4,4,"1,692",39.284668,-76.63079,Townhouse for sale,https://www.zillow.com/homedetails/815-1-2-McHenry-St-Baltimore-MD-21230/2094973312_zpid/,06-23-2022_21:52:58,2094973312,3D Homes Icon3D Tour
406 Grundy St,Baltimore,MD,21224,"$359,900",3,4,"1,600",39.287518,-76.56364,Townhouse for sale,https://www.zillow.com/homedetails/406-Grundy-St-Baltimore-MD-21224/118501732_zpid/,06-23-2022_21:52:58,118501732,"Price cut: $15,000 (Jun 18)"
815 McHenry 1/2 St,Baltimore,MD,21230,"$325,000",4,4,"1,692",,,Townhouse for sale,https://www.zillow.com/homedetails/815-McHenry-1-2-St-Baltimore-MD-21230/2063021899_zpid/,06-23-2022_21:52:58,2063021899,3D Homes Icon3D Tour
832 S Bond St,Baltimore,MD,21231,"$1,149,333",-,-,"3,437",39.28156,-76.59536,Multi-family home for sale,https://www.zillow.com/homedetails/832-S-Bond-St-Baltimore-MD-21231/36437561_zpid/,06-23-2022_21:52:58,36437561,22 days on Zillow
630 N Streeper St,Baltimore,MD,21205,"$45,000",3,1,--,39.29856,-76.57751,Townhouse for sale,https://www.zillow.com/homedetails/630-N-Streeper-St-Baltimore-MD-21205/36445378_zpid/,06-23-2022_21:52:58,36445378,22 days on Zillow
2018 E Lafayette Ave,Baltimore,MD,21213,"$64,000",3,1,--,39.31105,-76.5898,Townhouse for sale,https://www.zillow.com/homedetails/2018-E-Lafayette-Ave-Baltimore-MD-21213/36448650_zpid/,06-23-2022_21:52:58,36448650,22 days on Zillow
1403 N Bond St,Baltimore,MD,21213,"$220,000",3,3,--,39.306557,-76.59646,Townhouse for sale,https://www.zillow.com/homedetails/1403-N-Bond-St-Baltimore-MD-21213/36449858_zpid/,06-23-2022_21:52:58,36449858,22 days on Zillow
1118 W 38th St,Baltimore,MD,21211,"$200,000",2,3,"1,292",39.33421,-76.635376,Auction,https://www.zillow.com/homedetails/1118-W-38th-St-Baltimore-MD-21211/36479489_zpid/,06-23-2022_21:52:58,36479489,Open: Wed. 1-2pm
1025 Church St,Baltimore,MD,21225,"$160,000",3,2,"1,020",39.221718,-76.59637,Townhouse for sale,https://www.zillow.com/homedetails/1025-Church-St-Baltimore-MD-21225/36554728_zpid/,06-23-2022_21:52:58,36554728,23 days on Zillow
5604 Daywalt Ave,Baltimore,MD,21206,"$205,000",3,2,"1,746",39.328384,-76.535866,Townhouse for sale,https://www.zillow.com/homedetails/5604-Daywalt-Ave-Baltimore-MD-21206/36564578_zpid/,06-23-2022_21:52:58,36564578,23 days on Zillow
3708 Oakmont Ave,Baltimore,MD,21215,"$10,000",3,1,--,39.34294,-76.67764,Auction,https://www.zillow.com/homedetails/3708-Oakmont-Ave-Baltimore-MD-21215/36597538_zpid/,06-23-2022_21:52:58,36597538,23 days on Zillow
1400 Lancaster St UNIT 305,Baltimore,MD,21231,"$449,000",2,3,"1,853",39.282467,-76.59699,Condo for sale,https://www.zillow.com/homedetails/1400-Lancaster-St-UNIT-305-Baltimore-MD-21231/67870512_zpid/,06-23-2022_21:52:58,67870512,23 days on Zillow
675 President St UNIT 2602,Baltimore,MD,21202,"$575,000",2,2,"1,407",39.283752,-76.601,Condo for sale,https://www.zillow.com/homedetails/675-President-St-UNIT-2602-Baltimore-MD-21202/90010246_zpid/,06-23-2022_21:52:58,90010246,23 days on Zillow
1048 Ellicott Dr,Baltimore,MD,21216,"$69,999",2,1,840,39.300625,-76.66901,Townhouse for sale,https://www.zillow.com/homedetails/1048-Ellicott-Dr-Baltimore-MD-21216/2063053459_zpid/,06-23-2022_21:52:58,2063053459,"Price cut: $2,501 (Jun 7)"
2424 Smith Ave,Halethorpe,MD,21227,"$80,000",,,"5,894",39.252262,-76.65205,Lot / Land for sale,https://www.zillow.com/homedetails/2424-Smith-Ave-Halethorpe-MD-21227/2071706627_zpid/,06-23-2022_21:52:58,2071706627,24 days on Zillow
7314 Park Village Ct #7314,Pikesville,MD,21208,"$215,000",2,3,"1,520",,,Townhouse for sale,https://www.zillow.com/homedetails/7314-Park-Village-Ct-7314-Pikesville-MD-21208/2091804194_zpid/,06-23-2022_21:52:58,2091804194,Open: Sat. 12-2pm
4710 Curtis Ave,Baltimore,MD,21226,"$5,000",,,"1,740",39.22349,-76.58692,Auction,https://www.zillow.com/homedetails/4710-Curtis-Ave-Baltimore-MD-21226/249764327_zpid/,06-23-2022_21:52:58,249764327,24 days on Zillow
812 W Lanvale St,Baltimore,MD,21217,"$199,999",3,-,"2,376",39.298363,-76.63343,Multi-family home for sale,https://www.zillow.com/homedetails/812-W-Lanvale-St-Baltimore-MD-21217/36516020_zpid/,06-23-2022_21:52:58,36516020,"Price cut: $30,000 (Jun 18)"
4646 Pimlico Rd,Baltimore,MD,21215,"$161,000",3,2,--,39.34411,-76.668205,Townhouse for sale,https://www.zillow.com/homedetails/4646-Pimlico-Rd-Baltimore-MD-21215/36594628_zpid/,06-23-2022_21:52:58,36594628,"Price cut: $9,000 (Jun 10)"
3101 Wisteria Ave,Baltimore,MD,21214,"$324,000",,-,"2,160",39.351128,-76.55933,House for sale,https://www.zillow.com/homedetails/3101-Wisteria-Ave-Baltimore-MD-21214/131353266_zpid/,06-23-2022_21:52:58,131353266,"Price cut: $50,900 (Jun 8)"
LOT 15 Vinewood Pl,Gwynn Oak,MD,21207,"$44,500",,,"7,405",39.307644,-76.71071,Lot / Land for sale,https://www.zillow.com/homedetails/LOT-15-Vinewood-Pl-Gwynn-Oak-MD-21207/2063073547_zpid/,06-23-2022_21:52:58,2063073547,27 days on Zillow
1904 Bank St,Baltimore,MD,21231,"$380,000",3,4,"1,792",39.286953,-76.589935,Townhouse for sale,https://www.zillow.com/homedetails/1904-Bank-St-Baltimore-MD-21231/36436285_zpid/,06-23-2022_21:52:58,36436285,27 days on Zillow
727 N Chester St,Baltimore,MD,21205,"$265,000",3,4,"2,025",39.299248,-76.58764,Townhouse for sale,https://www.zillow.com/homedetails/727-N-Chester-St-Baltimore-MD-21205/36444110_zpid/,06-23-2022_21:52:58,36444110,"Price cut: $20,000 (Jun 21)"
5602 Plainfield Ave,Baltimore,MD,21206,"$275,000",2,1,"1,055",39.338257,-76.54165,House for sale,https://www.zillow.com/homedetails/5602-Plainfield-Ave-Baltimore-MD-21206/36566518_zpid/,06-23-2022_21:52:58,36566518,"Price cut: $5,000 (Jun 16)"
3611 Belair Rd,Baltimore,MD,21213,"$74,000",4,2,"1,386",39.324413,-76.56955,Townhouse for sale,https://www.zillow.com/homedetails/3611-Belair-Rd-Baltimore-MD-21213/36573755_zpid/,06-23-2022_21:52:58,36573755,27 days on Zillow
4612 Fait Ave,Baltimore,MD,21224,"$330,000",2,4,"1,600",39.284138,-76.556564,Townhouse for sale,https://www.zillow.com/homedetails/4612-Fait-Ave-Baltimore-MD-21224/119196905_zpid/,06-23-2022_21:52:58,119196905,28 days on Zillow
648 Dover St,Baltimore,MD,21230,"$199,900",2,2,858,39.285774,-76.62531,Townhouse for sale,https://www.zillow.com/homedetails/648-Dover-St-Baltimore-MD-21230/36535521_zpid/,06-23-2022_21:52:58,36535521,3D Homes Icon3D Tour
5019 Frederick Ave,Baltimore,MD,21229,"$210,000",3,1,"1,140",39.28107,-76.697716,Townhouse for sale,https://www.zillow.com/homedetails/5019-Frederick-Ave-Baltimore-MD-21229/36545516_zpid/,06-23-2022_21:52:58,36545516,"Price cut: $10,000 (Jun 20)"
3601 9th St,Baltimore,MD,21225,"$99,900",3,1,960,39.23444,-76.59773,Townhouse for sale,https://www.zillow.com/homedetails/3601-9th-St-Baltimore-MD-21225/36551628_zpid/,06-23-2022_21:52:58,36551628,29 days on Zillow
6106 Bessemer Ave,Baltimore,MD,21224,"$15,000",,,"2,000",39.27562,-76.54328,Auction,https://www.zillow.com/homedetails/6106-Bessemer-Ave-Baltimore-MD-21224/36557011_zpid/,06-23-2022_21:52:58,36557011,29 days on Zillow
4604 Simms Ave,Baltimore,MD,21206,"$279,500",3,2,"1,397",39.33502,-76.562126,House for sale,https://www.zillow.com/homedetails/4604-Simms-Ave-Baltimore-MD-21206/36577005_zpid/,06-23-2022_21:52:58,36577005,29 days on Zillow
2850 Oakley Ave,Baltimore,MD,21215,"$100,000",3,1,"1,326",39.349056,-76.66833,Townhouse for sale,https://www.zillow.com/homedetails/2850-Oakley-Ave-Baltimore-MD-21215/36596432_zpid/,06-23-2022_21:52:58,36596432,29 days on Zillow
5145 Nelson Ave,Baltimore,MD,21215,"$133,500",2,1,--,39.344486,-76.68113,Townhouse for sale,https://www.zillow.com/homedetails/5145-Nelson-Ave-Baltimore-MD-21215/36597262_zpid/,06-23-2022_21:52:58,36597262,"Price cut: $5,000 (Jun 22)"
27 Yogurt Ln,Baltimore,MD,21231,"$429,900",3,4,"2,118",39.29057,-76.593056,Townhouse for sale,https://www.zillow.com/homedetails/27-Yogurt-Ln-Baltimore-MD-21231/90009784_zpid/,06-23-2022_21:52:58,90009784,"Price cut: $20,000 (Jun 19)"
2105 Hollins St,Baltimore,MD,21223,"$10,000",,-,--,39.286804,-76.65023,Auction,https://www.zillow.com/homedetails/2105-Hollins-St-Baltimore-MD-21223/294976238_zpid/,06-23-2022_21:52:58,294976238,30 days on Zillow
2513 Christian St,Baltimore,MD,21223,"$10,000",,-,"1,248",39.279743,-76.65514,Auction,https://www.zillow.com/homedetails/2513-Christian-St-Baltimore-MD-21223/36525495_zpid/,06-23-2022_21:52:58,36525495,31 days on Zillow
2034 Deering Ave,Baltimore,MD,21230,"$129,000",3,1,"1,112",39.262012,-76.65287,Townhouse for sale,https://www.zillow.com/homedetails/2034-Deering-Ave-Baltimore-MD-21230/36546549_zpid/,06-23-2022_21:52:58,36546549,31 days on Zillow
501 S Newkirk St,Baltimore,MD,21224,"$154,999",2,2,"1,725",39.28662,-76.55632,Townhouse for sale,https://www.zillow.com/homedetails/501-S-Newkirk-St-Baltimore-MD-21224/36557913_zpid/,06-23-2022_21:52:58,36557913,"Price cut: $5,000 (Jun 17)"
1000 Fell St UNIT 628,Baltimore,MD,21231,"$695,000",2,3,"2,282",39.280037,-76.58962,Condo for sale,https://www.zillow.com/homedetails/1000-Fell-St-UNIT-628-Baltimore-MD-21231/90007778_zpid/,06-23-2022_21:52:58,90007778,31 days on Zillow
23 Pierside Dr UNIT 232,Baltimore,MD,21230,"$230,000",1,1,776,39.278675,-76.60589,Apartment for sale,https://www.zillow.com/homedetails/23-Pierside-Dr-UNIT-232-Baltimore-MD-21230/117586783_zpid/,06-23-2022_21:52:58,117586783,Open: Sat. 10am-12pm
1640 N Broadway,Baltimore,MD,21213,"$264,900",,-,--,39.30946,-76.59533,Townhouse for sale,https://www.zillow.com/homedetails/1640-N-Broadway-Baltimore-MD-21213/2075867996_zpid/,06-23-2022_21:52:58,2075867996,32 days on Zillow
155 N Kenwood Ave,Baltimore,MD,21224,"$90,000",4,2,"1,326",39.294415,-76.57748,Auction,https://www.zillow.com/homedetails/155-N-Kenwood-Ave-Baltimore-MD-21224/36441005_zpid/,06-23-2022_21:52:58,36441005,32 days on Zillow
2804 Ashland Ave,Baltimore,MD,21205,"$165,000",3,1,980,39.301327,-76.57796,Townhouse for sale,https://www.zillow.com/homedetails/2804-Ashland-Ave-Baltimore-MD-21205/36446268_zpid/,06-23-2022_21:52:58,36446268,"Price cut: $10,000 (May 31)"
1720 N Washington St,Baltimore,MD,21213,"$95,000",3,1,--,39.310253,-76.590546,Townhouse for sale,https://www.zillow.com/homedetails/1720-N-Washington-St-Baltimore-MD-21213/36453881_zpid/,06-23-2022_21:52:58,36453881,32 days on Zillow
